{
"type": "FeatureCollection",
"crs": { "type": "name", "properties": { "name": "urn:ogc:def:crs:OGC:1.3:CRS84" } },
"features": [
{ "type": "Feature", "properties": { "id": 1, "km": 1, "secteur": 1, "jour": "04\/05\/2018", "heure": "21:00:00", "temps": "5:30", "commune_br": "KEMPER", "commune_fr": "QUIMPER", "adresse": "Plasenn Sant Kaourintin", "latitude": 47.995872, "longitude": -4.102213, "desc_bzh": null, "desc_fr": null, "commentaires": null, "activation": 1 }, "geometry": { "type": "Point", "coordinates": [ -4.102213, 47.995872 ] } },
{ "type": "Feature", "properties": { "id": 2, "km": 2, "secteur": 1, "jour": "04\/05\/2018", "heure": "21:00:00", "temps": "5:30", "commune_br": "KEMPER", "commune_fr": "QUIMPER", "adresse": "Plasenn Sant Kaourintin", "latitude": 47.995872, "longitude": -4.102213, "desc_bzh": null, "desc_fr": null, "commentaires": null, "activation": 1 }, "geometry": { "type": "Point", "coordinates": [ -4.102213, 47.995872 ] } },
{ "type": "Feature", "properties": { "id": 3, "km": 3, "secteur": 1, "jour": "04\/05\/2018", "heure": "21:00:00", "temps": "5:30", "commune_br": "KEMPER", "commune_fr": "QUIMPER", "adresse": "Plasenn Sant Kaourintin", "latitude": 47.995872, "longitude": -4.102213, "desc_bzh": null, "desc_fr": null, "commentaires": null, "activation": 1 }, "geometry": { "type": "Point", "coordinates": [ -4.102213, 47.995872 ] } },
{ "type": "Feature", "properties": { "id": 4, "km": 4, "secteur": 1, "jour": "04\/05\/2018", "heure": "21:00:00", "temps": "5:30", "commune_br": "KEMPER", "commune_fr": "QUIMPER", "adresse": "Plasenn Sant Kaourintin 47.995872 -4.102213", "latitude": 47.995872, "longitude": -4.102213, "desc_bzh": null, "desc_fr": null, "commentaires": null, "activation": 1 }, "geometry": { "type": "Point", "coordinates": [ -4.102213, 47.995872 ] } },
{ "type": "Feature", "properties": { "id": 5, "km": 5, "secteur": 1, "jour": "04\/05\/2018", "heure": "21:00:00", "temps": "4:30", "commune_br": "KEMPER", "commune_fr": "QUIMPER", "adresse": "Plasenn Sant Kaourintin", "latitude": 47.995872, "longitude": -4.102213, "desc_bzh": null, "desc_fr": null, "commentaires": null, "activation": 1 }, "geometry": { "type": "Point", "coordinates": [ -4.102213, 47.995872 ] } },
{ "type": "Feature", "properties": { "id": 6, "km": 6, "secteur": 1, "jour": "04\/05\/2018", "heure": "21:00:00", "temps": "5:30", "commune_br": "KEMPER", "commune_fr": "QUIMPER", "adresse": "Plasenn Sant Kaourintin", "latitude": 47.995872, "longitude": -4.102213, "desc_bzh": null, "desc_fr": null, "commentaires": null, "activation": 1 }, "geometry": { "type": "Point", "coordinates": [ -4.102213, 47.995872 ] } },
{ "type": "Feature", "properties": { "id": 7, "km": 7, "secteur": 1, "jour": "04\/05\/2018", "heure": "21:00:00", "temps": "4:30", "commune_br": "KEMPER", "commune_fr": "QUIMPER", "adresse": "Plasenn Sant Kaourintin", "latitude": 47.995872, "longitude": -4.102213, "desc_bzh": null, "desc_fr": null, "commentaires": null, "activation": 1 }, "geometry": { "type": "Point", "coordinates": [ -4.102213, 47.995872 ] } },
{ "type": "Feature", "properties": { "id": 8, "km": 8, "secteur": 1, "jour": "04\/05\/2018", "heure": "21:00:00", "temps": "5:30", "commune_br": "KEMPER", "commune_fr": "QUIMPER", "adresse": "Plasenn Sant Kaourintin", "latitude": 47.995872, "longitude": -4.102213, "desc_bzh": null, "desc_fr": null, "commentaires": null, "activation": 1 }, "geometry": { "type": "Point", "coordinates": [ -4.102213, 47.995872 ] } },
{ "type": "Feature", "properties": { "id": 9, "km": 9, "secteur": 1, "jour": "04\/05\/2018", "heure": "21:00:00", "temps": "4:30", "commune_br": "KEMPER", "commune_fr": "QUIMPER", "adresse": "Plasenn Sant Kaourintin", "latitude": 47.995872, "longitude": -4.102213, "desc_bzh": null, "desc_fr": null, "commentaires": null, "activation": 1 }, "geometry": { "type": "Point", "coordinates": [ -4.102213, 47.995872 ] } },
{ "type": "Feature", "properties": { "id": 10, "km": 10, "secteur": 1, "jour": "04\/05\/2018", "heure": "21:00:00", "temps": "5:30", "commune_br": "KEMPER", "commune_fr": "QUIMPER", "adresse": "Plasenn Sant Kaourintin", "latitude": 47.995872, "longitude": -4.102213, "desc_bzh": null, "desc_fr": null, "commentaires": null, "activation": 1 }, "geometry": { "type": "Point", "coordinates": [ -4.102213, 47.995872 ] } },
{ "type": "Feature", "properties": { "id": 11, "km": 11, "secteur": 1, "jour": "04\/05\/2018", "heure": "21:00:00", "temps": "4:30", "commune_br": "KEMPER", "commune_fr": "QUIMPER", "adresse": "Plasenn Sant Kaourintin", "latitude": 47.995872, "longitude": -4.102213, "desc_bzh": null, "desc_fr": null, "commentaires": null, "activation": 1 }, "geometry": { "type": "Point", "coordinates": [ -4.102213, 47.995872 ] } },
{ "type": "Feature", "properties": { "id": 12, "km": 12, "secteur": 1, "jour": "04\/05\/2018", "heure": "21:00:00", "temps": "5:30", "commune_br": "KEMPER", "commune_fr": "QUIMPER", "adresse": "Plasenn Sant Kaourintin", "latitude": 47.995872, "longitude": -4.102213, "desc_bzh": null, "desc_fr": null, "commentaires": null, "activation": 1 }, "geometry": { "type": "Point", "coordinates": [ -4.102213, 47.995872 ] } },
{ "type": "Feature", "properties": { "id": 13, "km": 13, "secteur": 1, "jour": "04\/05\/2018", "heure": "21:00:00", "temps": "4:30", "commune_br": "KEMPER", "commune_fr": "QUIMPER", "adresse": "Plasenn Sant Kaourintin", "latitude": 47.995872, "longitude": -4.102213, "desc_bzh": null, "desc_fr": null, "commentaires": null, "activation": 1 }, "geometry": { "type": "Point", "coordinates": [ -4.102213, 47.995872 ] } },
{ "type": "Feature", "properties": { "id": 14, "km": 14, "secteur": 1, "jour": "04\/05\/2018", "heure": "21:00:00", "temps": "10:00", "commune_br": "KEMPER", "commune_fr": "QUIMPER", "adresse": "Plasenn Sant Kaourintin", "latitude": 47.995872, "longitude": -4.102213, "desc_bzh": null, "desc_fr": null, "commentaires": null, "activation": 1 }, "geometry": { "type": "Point", "coordinates": [ -4.102213, 47.995872 ] } },
{ "type": "Feature", "properties": { "id": 15, "km": 15, "secteur": 1, "jour": "04\/05\/2018", "heure": "21:00:00", "temps": "6:30", "commune_br": "KEMPER", "commune_fr": "QUIMPER", "adresse": "Plasenn Sant Kaourintin", "latitude": 47.995872, "longitude": -4.102213, "desc_bzh": null, "desc_fr": null, "commentaires": null, "activation": 1 }, "geometry": { "type": "Point", "coordinates": [ -4.102213, 47.995872 ] } },
{ "type": "Feature", "properties": { "id": 16, "km": 16, "secteur": 1, "jour": "04\/05\/2018", "heure": "21:00:00", "temps": "6:00", "commune_br": "KEMPER", "commune_fr": "QUIMPER", "adresse": "Plasenn Sant Kaourintin", "latitude": 47.995872, "longitude": -4.102213, "desc_bzh": null, "desc_fr": null, "commentaires": null, "activation": 1 }, "geometry": { "type": "Point", "coordinates": [ -4.102213, 47.995872 ] } },
{ "type": "Feature", "properties": { "id": 17, "km": 17, "secteur": 1, "jour": "04\/05\/2018", "heure": "21:00:00", "temps": "4:30", "commune_br": "KEMPER", "commune_fr": "QUIMPER", "adresse": "Plasenn Sant Kaourintin", "latitude": 47.995872, "longitude": -4.102213, "desc_bzh": null, "desc_fr": null, "commentaires": null, "activation": 1 }, "geometry": { "type": "Point", "coordinates": [ -4.102213, 47.995872 ] } },
{ "type": "Feature", "properties": { "id": 18, "km": 18, "secteur": 1, "jour": "04\/05\/2018", "heure": "21:00:00", "temps": "5:30", "commune_br": "KEMPER", "commune_fr": "QUIMPER", "adresse": "Plasenn Sant Kaourintin", "latitude": 47.995872, "longitude": -4.102213, "desc_bzh": null, "desc_fr": null, "commentaires": null, "activation": 1 }, "geometry": { "type": "Point", "coordinates": [ -4.102213, 47.995872 ] } },
{ "type": "Feature", "properties": { "id": 19, "km": 19, "secteur": 1, "jour": "04\/05\/2018", "heure": "21:00:00", "temps": "5:30", "commune_br": "KEMPER", "commune_fr": "QUIMPER", "adresse": "Plasenn Sant Kaourintin", "latitude": 47.995872, "longitude": -4.102213, "desc_bzh": null, "desc_fr": null, "commentaires": null, "activation": 1 }, "geometry": { "type": "Point", "coordinates": [ -4.102213, 47.995872 ] } },
{ "type": "Feature", "properties": { "id": 20, "km": 20, "secteur": 1, "jour": "04\/05\/2018", "heure": "21:00:00", "temps": "6:30", "commune_br": "KEMPER", "commune_fr": "QUIMPER", "adresse": "44 Place Saint-Corentin, 29000 Quimper, France", "latitude": 47.9962116, "longitude": -4.1020655, "desc_bzh": null, "desc_fr": null, "commentaires": null, "activation": 1 }, "geometry": { "type": "Point", "coordinates": [ -4.1020655, 47.9962116 ] } },
{ "type": "Feature", "properties": { "id": 21, "km": 21, "secteur": 1, "jour": "04\/05\/2018", "heure": "21:00:00", "temps": "6:34", "commune_br": "KEMPER", "commune_fr": "QUIMPER", "adresse": "Square du Dr René Théophile Hyacinthe Laennec, 29000 Quimper, France", "latitude": 47.9958528, "longitude": -4.102502, "desc_bzh": null, "desc_fr": null, "commentaires": null, "activation": 1 }, "geometry": { "type": "Point", "coordinates": [ -4.102502, 47.995852799999987 ] } },
{ "type": "Feature", "properties": { "id": 22, "km": 22, "secteur": 1, "jour": "04\/05\/2018", "heure": "21:06:34", "temps": "6:34", "commune_br": "KEMPER", "commune_fr": "QUIMPER", "adresse": "8 Route de Brest, 29000 Quimper, France", "latitude": 47.9986303, "longitude": -4.0930842, "desc_bzh": null, "desc_fr": null, "commentaires": null, "activation": 1 }, "geometry": { "type": "Point", "coordinates": [ -4.09308420000002, 47.998630299999988 ] } },
{ "type": "Feature", "properties": { "id": 23, "km": 23, "secteur": 1, "jour": "04\/05\/2018", "heure": "21:13:08", "temps": "6:34", "commune_br": "KEMPER", "commune_fr": "QUIMPER", "adresse": "80 Route de Brest, 29000 Quimper, France", "latitude": 48.0030095, "longitude": -4.0837944, "desc_bzh": null, "desc_fr": null, "commentaires": "Ce kilomètre serait destiné à France Bleu Breizh Izel.", "activation": 1 }, "geometry": { "type": "Point", "coordinates": [ -4.0837944, 48.0030095 ] } },
{ "type": "Feature", "properties": { "id": 24, "km": 24, "secteur": 1, "jour": "04\/05\/2018", "heure": "21:19:42", "temps": "6:34", "commune_br": "KEMPER", "commune_fr": "QUIMPER", "adresse": "136 Route de Brest, 29000 Quimper, France", "latitude": 48.012088, "longitude": -4.077613, "desc_bzh": null, "desc_fr": null, "commentaires": null, "activation": 1 }, "geometry": { "type": "Point", "coordinates": [ -4.077613, 48.012088 ] } },
{ "type": "Feature", "properties": { "id": 25, "km": 25, "secteur": 1, "jour": "04\/05\/2018", "heure": "21:26:16", "temps": "6:34", "commune_br": "KEMPER", "commune_fr": "QUIMPER", "adresse": "21 Route de Briec, 29000 Quimper, France", "latitude": 48.01948, "longitude": -4.078922, "desc_bzh": null, "desc_fr": null, "commentaires": null, "activation": 1 }, "geometry": { "type": "Point", "coordinates": [ -4.078922, 48.01948 ] } },
{ "type": "Feature", "properties": { "id": 26, "km": 26, "secteur": 1, "jour": "04\/05\/2018", "heure": "21:32:50", "temps": "6:34", "commune_br": "KEMPER", "commune_fr": "QUIMPER", "adresse": "135 Vieille Route de Briec, 29000 Quimper, France", "latitude": 48.028225, "longitude": -4.075845, "desc_bzh": null, "desc_fr": null, "commentaires": null, "activation": 1 }, "geometry": { "type": "Point", "coordinates": [ -4.075845, 48.028225 ] } },
{ "type": "Feature", "properties": { "id": 27, "km": 27, "secteur": 1, "jour": "04\/05\/2018", "heure": "21:39:24", "temps": "6:34", "commune_br": "KEMPER", "commune_fr": "QUIMPER", "adresse": "7 Chemin de Tréouzon, 29000 Quimper, France", "latitude": 48.0324784, "longitude": -4.0719981, "desc_bzh": null, "desc_fr": null, "commentaires": null, "activation": 1 }, "geometry": { "type": "Point", "coordinates": [ -4.0719981, 48.0324784 ] } },
{ "type": "Feature", "properties": { "id": 28, "km": 28, "secteur": 1, "jour": "04\/05\/2018", "heure": "21:45:58", "temps": "6:34", "commune_br": "KEMPER", "commune_fr": "QUIMPER", "adresse": "321 Vieille Route de Briec, 29000 Quimper, France", "latitude": 48.043122, "longitude": -4.064003, "desc_bzh": null, "desc_fr": null, "commentaires": null, "activation": 1 }, "geometry": { "type": "Point", "coordinates": [ -4.064003, 48.043122 ] } },
{ "type": "Feature", "properties": { "id": 29, "km": 29, "secteur": 1, "jour": "04\/05\/2018", "heure": "21:52:32", "temps": "6:34", "commune_br": "BRIEG", "commune_fr": "BRIEC", "adresse": "D785, 29510 Briec, France48.04695570000000", "latitude": 48.049068, "longitude": -4.057576, "desc_bzh": null, "desc_fr": null, "commentaires": null, "activation": 1 }, "geometry": { "type": "Point", "coordinates": [ -4.057576, 48.049068 ] } },
{ "type": "Feature", "properties": { "id": 30, "km": 30, "secteur": 1, "jour": "04\/05\/2018", "heure": "21:59:06", "temps": "6:34", "commune_br": "BRIEG", "commune_fr": "BRIEC", "adresse": "297-315 D785, 29510 Briec, France", "latitude": 48.052267, "longitude": -4.04653, "desc_bzh": null, "desc_fr": null, "commentaires": null, "activation": 1 }, "geometry": { "type": "Point", "coordinates": [ -4.04653, 48.052267 ] } },
{ "type": "Feature", "properties": { "id": 31, "km": 31, "secteur": 1, "jour": "04\/05\/2018", "heure": "22:05:40", "temps": "6:34", "commune_br": "BRIEG", "commune_fr": "BRIEC", "adresse": "D785, 29510 Briec, France", "latitude": 48.052808, "longitude": -4.033168, "desc_bzh": null, "desc_fr": null, "commentaires": null, "activation": 1 }, "geometry": { "type": "Point", "coordinates": [ -4.033168, 48.052808 ] } },
{ "type": "Feature", "properties": { "id": 32, "km": 32, "secteur": 1, "jour": "04\/05\/2018", "heure": "22:12:14", "temps": "6:34", "commune_br": "BRIEG", "commune_fr": "BRIEC", "adresse": "D785, 29510 Briec, France", "latitude": 48.058358, "longitude": -4.023384, "desc_bzh": null, "desc_fr": null, "commentaires": null, "activation": 1 }, "geometry": { "type": "Point", "coordinates": [ -4.023384, 48.058358 ] } },
{ "type": "Feature", "properties": { "id": 33, "km": 33, "secteur": 1, "jour": "04\/05\/2018", "heure": "22:18:48", "temps": "6:34", "commune_br": "BRIEG", "commune_fr": "BRIEC", "adresse": "D785, 29510 Briec, France", "latitude": 48.0619768, "longitude": -4.0214506, "desc_bzh": null, "desc_fr": null, "commentaires": null, "activation": 1 }, "geometry": { "type": "Point", "coordinates": [ -4.0214506, 48.0619768 ] } },
{ "type": "Feature", "properties": { "id": 34, "km": 34, "secteur": 1, "jour": "04\/05\/2018", "heure": "22:25:22", "temps": "6:14", "commune_br": "BRIEG", "commune_fr": "BRIEC", "adresse": "D785, 29510 Briec, France", "latitude": 48.0707039, "longitude": -4.0196568, "desc_bzh": null, "desc_fr": null, "commentaires": null, "activation": 1 }, "geometry": { "type": "Point", "coordinates": [ -4.01965680000001, 48.0707039 ] } },
{ "type": "Feature", "properties": { "id": 35, "km": 35, "secteur": 1, "jour": "04\/05\/2018", "heure": "22:31:36", "temps": "6:14", "commune_br": "BRIEG", "commune_fr": "BRIEC", "adresse": "D785, 29510 Briec, France", "latitude": 48.0781347, "longitude": -4.0116175000001, "desc_bzh": null, "desc_fr": null, "commentaires": null, "activation": 1 }, "geometry": { "type": "Point", "coordinates": [ -4.01161750000006, 48.0781347 ] } },
{ "type": "Feature", "properties": { "id": 36, "km": 36, "secteur": 1, "jour": "04\/05\/2018", "heure": "22:37:50", "temps": "6:14", "commune_br": "BRIEG", "commune_fr": "BRIEC", "adresse": "D785, 29510 Briec, France", "latitude": 48.087557, "longitude": -4.004177, "desc_bzh": null, "desc_fr": null, "commentaires": null, "activation": 1 }, "geometry": { "type": "Point", "coordinates": [ -4.004177, 48.087557 ] } },
{ "type": "Feature", "properties": { "id": 37, "km": 37, "secteur": 1, "jour": "04\/05\/2018", "heure": "22:44:04", "temps": "6:14", "commune_br": "BRIEG", "commune_fr": "BRIEC", "adresse": "D785, 29510 Briec, France", "latitude": 48.095451, "longitude": -4.001736, "desc_bzh": null, "desc_fr": null, "commentaires": null, "activation": 1 }, "geometry": { "type": "Point", "coordinates": [ -4.001736, 48.095451 ] } },
{ "type": "Feature", "properties": { "id": 38, "km": 38, "secteur": 1, "jour": "04\/05\/2018", "heure": "22:50:18", "temps": "6:14", "commune_br": "BRIEG", "commune_fr": "BRIEC", "adresse": "D61, 29510 Briec, France", "latitude": 48.097601, "longitude": -4.008785, "desc_bzh": null, "desc_fr": null, "commentaires": null, "activation": 1 }, "geometry": { "type": "Point", "coordinates": [ -4.008785, 48.097601 ] } },
{ "type": "Feature", "properties": { "id": 63, "km": 39, "secteur": 1, "jour": "04\/05\/2018", "heure": "22:56:32", "temps": "6:14", "commune_br": "BRIEG", "commune_fr": "BRIEC", "adresse": "D61, 29510 Briec, France", "latitude": 48.100245, "longitude": -4.019825, "desc_bzh": null, "desc_fr": null, "commentaires": null, "activation": 1 }, "geometry": { "type": "Point", "coordinates": [ -4.019825, 48.100245 ] } },
{ "type": "Feature", "properties": { "id": 39, "km": 40, "secteur": 1, "jour": "04\/05\/2018", "heure": "23:02:46", "temps": "6:14", "commune_br": "BRIEG", "commune_fr": "BRIEC", "adresse": "D61, 29510 Briec, France", "latitude": 48.099202, "longitude": -4.033778, "desc_bzh": null, "desc_fr": null, "commentaires": null, "activation": 1 }, "geometry": { "type": "Point", "coordinates": [ -4.033778, 48.099202 ] } },
{ "type": "Feature", "properties": { "id": 40, "km": 41, "secteur": 1, "jour": "04\/05\/2018", "heure": "23:09:00", "temps": "6:14", "commune_br": "BRIEG", "commune_fr": "BRIEC", "adresse": "203 D61, 29510 Briec, France", "latitude": 48.0958062, "longitude": -4.0447604, "desc_bzh": null, "desc_fr": null, "commentaires": null, "activation": 1 }, "geometry": { "type": "Point", "coordinates": [ -4.0447604, 48.0958062 ] } },
{ "type": "Feature", "properties": { "id": 41, "km": 42, "secteur": 1, "jour": "04\/05\/2018", "heure": "23:15:14", "temps": "6:14", "commune_br": "LANDREVARZEG", "commune_fr": "LANDRÉVARZEC", "adresse": "D61, 29510 Landrévarzec, France", "latitude": 48.092735, "longitude": -4.05655, "desc_bzh": null, "desc_fr": null, "commentaires": null, "activation": 1 }, "geometry": { "type": "Point", "coordinates": [ -4.05655, 48.092735 ] } },
{ "type": "Feature", "properties": { "id": 42, "km": 43, "secteur": 1, "jour": "04\/05\/2018", "heure": "23:21:28", "temps": "6:14", "commune_br": "LANDREVARZEG", "commune_fr": "LANDRÉVARZEC", "adresse": "D61, 29510 Landrévarzec, France", "latitude": 48.094175, "longitude": -4.068631, "desc_bzh": null, "desc_fr": null, "commentaires": null, "activation": 1 }, "geometry": { "type": "Point", "coordinates": [ -4.068631, 48.094175 ] } },
{ "type": "Feature", "properties": { "id": 43, "km": 44, "secteur": 1, "jour": "04\/05\/2018", "heure": "23:27:42", "temps": "6:14", "commune_br": "LANDREVARZEG", "commune_fr": "LANDRÉVARZEC", "adresse": "D770, 29510 Landrévarzec, France", "latitude": 48.09976, "longitude": -4.072134, "desc_bzh": null, "desc_fr": null, "commentaires": null, "activation": 1 }, "geometry": { "type": "Point", "coordinates": [ -4.072134, 48.09976 ] } },
{ "type": "Feature", "properties": { "id": 44, "km": 45, "secteur": 1, "jour": "04\/05\/2018", "heure": "23:33:56", "temps": "6:14", "commune_br": "LANDREVARZEG", "commune_fr": "LANDRÉVARZEC", "adresse": "D770, 29510 Landrévarzec, France", "latitude": 48.107838, "longitude": -4.076635, "desc_bzh": null, "desc_fr": null, "commentaires": null, "activation": 1 }, "geometry": { "type": "Point", "coordinates": [ -4.076635, 48.107838 ] } },
{ "type": "Feature", "properties": { "id": 45, "km": 46, "secteur": 1, "jour": "04\/05\/2018", "heure": "23:40:10", "temps": "6:14", "commune_br": "LANDREVARZEG", "commune_fr": "LANDRÉVARZEC", "adresse": "2 D61, 29510 Landrévarzec, France", "latitude": 48.116756, "longitude": -4.084564, "desc_bzh": null, "desc_fr": null, "commentaires": null, "activation": 1 }, "geometry": { "type": "Point", "coordinates": [ -4.084564, 48.116756 ] } },
{ "type": "Feature", "properties": { "id": 46, "km": 47, "secteur": 1, "jour": "04\/05\/2018", "heure": "23:46:24", "temps": "6:14", "commune_br": "KEMENEVEN", "commune_fr": "QUÉMÉNÉVEN", "adresse": "1-3 Rue des Sources, 29180 Quéménéven, France", "latitude": 48.116122, "longitude": -4.095191, "desc_bzh": null, "desc_fr": null, "commentaires": null, "activation": 1 }, "geometry": { "type": "Point", "coordinates": [ -4.095191, 48.116122 ] } },
{ "type": "Feature", "properties": { "id": 47, "km": 48, "secteur": 1, "jour": "04\/05\/2018", "heure": "23:52:38", "temps": "6:14", "commune_br": "KEMENEVEN", "commune_fr": "QUÉMÉNÉVEN", "adresse": "D61, 29180 Quéménéven, France", "latitude": 48.117042, "longitude": -4.107631, "desc_bzh": null, "desc_fr": null, "commentaires": null, "activation": 1 }, "geometry": { "type": "Point", "coordinates": [ -4.107631, 48.117042 ] } },
{ "type": "Feature", "properties": { "id": 48, "km": 49, "secteur": 1, "jour": "04\/05\/2018", "heure": "23:58:52", "temps": "6:14", "commune_br": "KEMENEVEN", "commune_fr": "QUÉMÉNÉVEN", "adresse": "234 D61, 29180 Quéménéven, France", "latitude": 48.114653, "longitude": -4.120243, "desc_bzh": null, "desc_fr": null, "commentaires": null, "activation": 1 }, "geometry": { "type": "Point", "coordinates": [ -4.120243, 48.114653 ] } },
{ "type": "Feature", "properties": { "id": 49, "km": 50, "secteur": 1, "jour": "05\/05\/2018", "heure": "00:05:06", "temps": "6:14", "commune_br": "KEMENEVEN", "commune_fr": "QUÉMÉNÉVEN", "adresse": "40 Route de Kergoat, 29180 Quéménéven, France", "latitude": 48.112615, "longitude": -4.130848, "desc_bzh": null, "desc_fr": null, "commentaires": null, "activation": 1 }, "geometry": { "type": "Point", "coordinates": [ -4.130848, 48.112615 ] } },
{ "type": "Feature", "properties": { "id": 50, "km": 51, "secteur": 1, "jour": "05\/05\/2018", "heure": "00:11:20", "temps": "6:14", "commune_br": "KEMENEVEN", "commune_fr": "QUÉMÉNÉVEN", "adresse": "D61, 29180 Quéménéven, France", "latitude": 48.11226, "longitude": -4.139801, "desc_bzh": null, "desc_fr": null, "commentaires": null, "activation": 1 }, "geometry": { "type": "Point", "coordinates": [ -4.139801, 48.11226 ] } },
{ "type": "Feature", "properties": { "id": 51, "km": 52, "secteur": 1, "jour": "05\/05\/2018", "heure": "00:17:34", "temps": "6:14", "commune_br": "KEMENEVEN", "commune_fr": "QUÉMÉNÉVEN", "adresse": "288 D61, 29180 Quéménéven, France", "latitude": 48.110172, "longitude": -4.154698, "desc_bzh": null, "desc_fr": null, "commentaires": null, "activation": 1 }, "geometry": { "type": "Point", "coordinates": [ -4.154698, 48.110172 ] } },
{ "type": "Feature", "properties": { "id": 52, "km": 53, "secteur": 1, "jour": "05\/05\/2018", "heure": "00:23:48", "temps": "6:14", "commune_br": "KEMENEVEN", "commune_fr": "QUÉMÉNÉVEN", "adresse": "290 D61, 29180 Quéménéven, France", "latitude": 48.114254, "longitude": -4.166268, "desc_bzh": null, "desc_fr": null, "commentaires": null, "activation": 1 }, "geometry": { "type": "Point", "coordinates": [ -4.166268, 48.114254 ] } },
{ "type": "Feature", "properties": { "id": 53, "km": 54, "secteur": 1, "jour": "05\/05\/2018", "heure": "00:30:02", "temps": "6:14", "commune_br": "KEMENEVEN", "commune_fr": "QUÉMÉNÉVEN", "adresse": "7 D61, 29180 Quéménéven, France", "latitude": 48.114228, "longitude": -4.177934, "desc_bzh": null, "desc_fr": null, "commentaires": null, "activation": 1 }, "geometry": { "type": "Point", "coordinates": [ -4.177934, 48.114228 ] } },
{ "type": "Feature", "properties": { "id": 54, "km": 55, "secteur": 1, "jour": "05\/05\/2018", "heure": "00:36:16", "temps": "6:14", "commune_br": "KEMENEVEN", "commune_fr": "QUÉMÉNÉVEN", "adresse": "10 Route de Plonévez Porzay, 29180 Quéménéven, France", "latitude": 48.117348, "longitude": -4.18877, "desc_bzh": null, "desc_fr": null, "commentaires": null, "activation": 1 }, "geometry": { "type": "Point", "coordinates": [ -4.18877, 48.117348 ] } },
{ "type": "Feature", "properties": { "id": 55, "km": 56, "secteur": 1, "jour": "05\/05\/2018", "heure": "00:42:30", "temps": "6:14", "commune_br": "KEMENEVEN", "commune_fr": "QUÉMÉNÉVEN", "adresse": "Unnamed Road, 29180 Quéménéven, France", "latitude": 48.125638, "longitude": -4.189773, "desc_bzh": null, "desc_fr": null, "commentaires": null, "activation": 1 }, "geometry": { "type": "Point", "coordinates": [ -4.189773, 48.125638 ] } },
{ "type": "Feature", "properties": { "id": 56, "km": 57, "secteur": 1, "jour": "05\/05\/2018", "heure": "00:48:44", "temps": "6:14", "commune_br": "KEMENEVEN", "commune_fr": "QUÉMÉNÉVEN", "adresse": "350 Le Lec, 29180 Quéménéven, France", "latitude": 48.131045, "longitude": -4.196991, "desc_bzh": null, "desc_fr": null, "commentaires": null, "activation": 1 }, "geometry": { "type": "Point", "coordinates": [ -4.196991, 48.131045 ] } },
{ "type": "Feature", "properties": { "id": 57, "km": 58, "secteur": 1, "jour": "05\/05\/2018", "heure": "00:54:58", "temps": "6:14", "commune_br": "PLONEVEZ PORZHE", "commune_fr": "PLONÉVEZ PORZAY", "adresse": "D107, 29550 Plonévez-Porzay, France", "latitude": 48.128857, "longitude": -4.207618, "desc_bzh": null, "desc_fr": null, "commentaires": null, "activation": 1 }, "geometry": { "type": "Point", "coordinates": [ -4.207618, 48.128857 ] } },
{ "type": "Feature", "properties": { "id": 58, "km": 59, "secteur": 1, "jour": "05\/05\/2018", "heure": "01:01:12", "temps": "6:14", "commune_br": "PLONEVEZ PORZHE", "commune_fr": "PLONÉVEZ PORZAY", "adresse": "23 Rue de l'Argoat, 29550 Plonévez-Porzay, France", "latitude": 48.126139, "longitude": -4.216968, "desc_bzh": null, "desc_fr": null, "commentaires": null, "activation": 1 }, "geometry": { "type": "Point", "coordinates": [ -4.216968, 48.126139 ] } },
{ "type": "Feature", "properties": { "id": 59, "km": 60, "secteur": 1, "jour": "05\/05\/2018", "heure": "01:07:26", "temps": "6:14", "commune_br": "PLONEVEZ PORZHE", "commune_fr": "PLONÉVEZ PORZAY", "adresse": "3-5 Rue Saint-Michel, 29550 Plonévez-Porzay, France", "latitude": 48.124248, "longitude": -4.216217, "desc_bzh": null, "desc_fr": null, "commentaires": null, "activation": 1 }, "geometry": { "type": "Point", "coordinates": [ -4.216217, 48.124248 ] } },
{ "type": "Feature", "properties": { "id": 60, "km": 61, "secteur": 1, "jour": "05\/05\/2018", "heure": "01:13:40", "temps": "6:14", "commune_br": "PLONEVEZ PORZHE", "commune_fr": "PLONÉVEZ PORZAY", "adresse": "D63, 29550 Plonévez-Porzay, France", "latitude": 48.117121, "longitude": -4.212706, "desc_bzh": null, "desc_fr": null, "commentaires": null, "activation": 1 }, "geometry": { "type": "Point", "coordinates": [ -4.212706, 48.117121 ] } },
{ "type": "Feature", "properties": { "id": 61, "km": 62, "secteur": 1, "jour": "05\/05\/2018", "heure": "01:19:54", "temps": "6:14", "commune_br": "PLONEVEZ PORZHE", "commune_fr": "PLONÉVEZ PORZAY", "adresse": "D63, 29180 Plonévez-Porzay, France", "latitude": 48.109619, "longitude": -4.204834, "desc_bzh": null, "desc_fr": null, "commentaires": null, "activation": 1 }, "geometry": { "type": "Point", "coordinates": [ -4.204834, 48.109619 ] } },
{ "type": "Feature", "properties": { "id": 62, "km": 63, "secteur": 1, "jour": "05\/05\/2018", "heure": "01:26:08", "temps": "6:14", "commune_br": "LOKORN", "commune_fr": "LOCRONAN", "adresse": "D63, 29180 Locronan, France", "latitude": 48.101267, "longitude": -4.203967, "desc_bzh": null, "desc_fr": null, "commentaires": null, "activation": 1 }, "geometry": { "type": "Point", "coordinates": [ -4.203967, 48.101267 ] } },
{ "type": "Feature", "properties": { "id": 64, "km": 64, "secteur": 1, "jour": "05\/05\/2018", "heure": "01:32:22", "temps": "6:14", "commune_br": "LOKORN", "commune_fr": "LOCRONAN", "adresse": "219 Place de l'Église, 29180 Locronan, France", "latitude": 48.0984718, "longitude": -4.2083185, "desc_bzh": null, "desc_fr": null, "commentaires": null, "activation": 1 }, "geometry": { "type": "Point", "coordinates": [ -4.20831850000002, 48.0984718 ] } },
{ "type": "Feature", "properties": { "id": 65, "km": 65, "secteur": 1, "jour": "05\/05\/2018", "heure": "01:38:36", "temps": "6:14", "commune_br": "LOKORN", "commune_fr": "LOCRONAN", "adresse": "27-30 Kerislay, 29180 Locronan, France", "latitude": 48.0968988, "longitude": -4.2223754, "desc_bzh": null, "desc_fr": null, "commentaires": null, "activation": 1 }, "geometry": { "type": "Point", "coordinates": [ -4.22237540000003, 48.0968988 ] } },
{ "type": "Feature", "properties": { "id": 66, "km": 66, "secteur": 1, "jour": "05\/05\/2018", "heure": "01:44:50", "temps": "6:14", "commune_br": "LOKORN", "commune_fr": "LOCRONAN", "adresse": null, "latitude": 48.0964591, "longitude": -4.2329213, "desc_bzh": null, "desc_fr": null, "commentaires": null, "activation": 1 }, "geometry": { "type": "Point", "coordinates": [ -4.23292130000004, 48.0964591 ] } },
{ "type": "Feature", "properties": { "id": 67, "km": 67, "secteur": 1, "jour": "05\/05\/2018", "heure": "01:51:04", "temps": "6:14", "commune_br": "KERLAZ", "commune_fr": "KERLAZ", "adresse": null, "latitude": 48.095026, "longitude": -4.246139, "desc_bzh": null, "desc_fr": null, "commentaires": null, "activation": 1 }, "geometry": { "type": "Point", "coordinates": [ -4.246139, 48.095026 ] } },
{ "type": "Feature", "properties": { "id": 68, "km": 68, "secteur": 1, "jour": "05\/05\/2018", "heure": "01:57:18", "temps": "6:14", "commune_br": "KERLAZ", "commune_fr": "KERLAZ", "adresse": null, "latitude": 48.0931048, "longitude": -4.2569646, "desc_bzh": null, "desc_fr": null, "commentaires": null, "activation": 1 }, "geometry": { "type": "Point", "coordinates": [ -4.2569646, 48.093104800000013 ] } },
{ "type": "Feature", "properties": { "id": 69, "km": 69, "secteur": 1, "jour": "05\/05\/2018", "heure": "02:03:32", "temps": "6:14", "commune_br": "KERLAZ", "commune_fr": "KERLAZ", "adresse": "8-10 Route de l'École, 29100 Kerlaz, France", "latitude": 48.0907484, "longitude": -4.2695301, "desc_bzh": null, "desc_fr": null, "commentaires": null, "activation": 1 }, "geometry": { "type": "Point", "coordinates": [ -4.2695301, 48.0907484 ] } },
{ "type": "Feature", "properties": { "id": 70, "km": 70, "secteur": 1, "jour": "05\/05\/2018", "heure": "02:09:46", "temps": "6:14", "commune_br": "KERLAZ", "commune_fr": "KERLAZ", "adresse": "1978 Kerdiouzet, 29100 Kerlaz, France", "latitude": 48.0941557, "longitude": -4.2826338, "desc_bzh": null, "desc_fr": null, "commentaires": null, "activation": 1 }, "geometry": { "type": "Point", "coordinates": [ -4.2826338, 48.094155699999988 ] } },
{ "type": "Feature", "properties": { "id": 71, "km": 71, "secteur": 1, "jour": "05\/05\/2018", "heure": "02:16:00", "temps": "6:14", "commune_br": "KERLAZ", "commune_fr": "KERLAZ", "adresse": "Route de Douarnenez, 29100 Kerlaz, France", "latitude": 48.0916826, "longitude": -4.2922255, "desc_bzh": null, "desc_fr": null, "commentaires": null, "activation": 1 }, "geometry": { "type": "Point", "coordinates": [ -4.2922255, 48.0916826 ] } },
{ "type": "Feature", "properties": { "id": 72, "km": 72, "secteur": 1, "jour": "05\/05\/2018", "heure": "02:22:14", "temps": "6:14", "commune_br": "DOUARNENEZ", "commune_fr": "DOUARNENEZ", "adresse": "30 Route du Ris, 29100 Douarnenez, France", "latitude": 48.0892807, "longitude": -4.3029121, "desc_bzh": null, "desc_fr": null, "commentaires": null, "activation": 1 }, "geometry": { "type": "Point", "coordinates": [ -4.3029121, 48.0892807 ] } },
{ "type": "Feature", "properties": { "id": 73, "km": 73, "secteur": 1, "jour": "05\/05\/2018", "heure": "02:28:28", "temps": "6:14", "commune_br": "DOUARNENEZ", "commune_fr": "DOUARNENEZ", "adresse": "59 Route du Ris, 29100 Douarnenez, France", "latitude": 48.0887158, "longitude": -4.3085677, "desc_bzh": null, "desc_fr": null, "commentaires": null, "activation": 1 }, "geometry": { "type": "Point", "coordinates": [ -4.30856770000003, 48.0887158 ] } },
{ "type": "Feature", "properties": { "id": 74, "km": 74, "secteur": 1, "jour": "05\/05\/2018", "heure": "02:34:42", "temps": "6:14", "commune_br": "DOUARNENEZ", "commune_fr": "DOUARNENEZ", "adresse": "19 Rue Croas Talud, 29100 Douarnenez, France", "latitude": 48.088799, "longitude": -4.3227369, "desc_bzh": null, "desc_fr": null, "commentaires": null, "activation": 1 }, "geometry": { "type": "Point", "coordinates": [ -4.3227369, 48.088799 ] } },
{ "type": "Feature", "properties": { "id": 75, "km": 75, "secteur": 1, "jour": "05\/05\/2018", "heure": "02:40:56", "temps": "6:14", "commune_br": "DOUARNENEZ", "commune_fr": "DOUARNENEZ", "adresse": null, "latitude": 48.093266, "longitude": -4.3266507, "desc_bzh": null, "desc_fr": null, "commentaires": null, "activation": 1 }, "geometry": { "type": "Point", "coordinates": [ -4.3266507, 48.093266 ] } },
{ "type": "Feature", "properties": { "id": 76, "km": 76, "secteur": 1, "jour": "05\/05\/2018", "heure": "02:47:10", "temps": "6:14", "commune_br": "DOUARNENEZ", "commune_fr": "DOUARNENEZ", "adresse": "40 Terre-Plein du Port, 29100 Douarnenez, France", "latitude": 48.0980522, "longitude": -4.3265690000000596, "desc_bzh": null, "desc_fr": null, "commentaires": null, "activation": 1 }, "geometry": { "type": "Point", "coordinates": [ -4.326569, 48.0980522 ] } },
{ "type": "Feature", "properties": { "id": 77, "km": 77, "secteur": 1, "jour": "05\/05\/2018", "heure": "02:53:24", "temps": "6:14", "commune_br": "DOUARNENEZ", "commune_fr": "DOUARNENEZ", "adresse": "2 Boulevard Jean Richepin, 29100 Douarnenez, France", "latitude": 48.0975921, "longitude": -4.3332781, "desc_bzh": null, "desc_fr": null, "commentaires": null, "activation": 1 }, "geometry": { "type": "Point", "coordinates": [ -4.33327810000003, 48.0975921 ] } },
{ "type": "Feature", "properties": { "id": 78, "km": 78, "secteur": 1, "jour": "05\/05\/2018", "heure": "02:59:38", "temps": "6:14", "commune_br": "DOUARNENEZ", "commune_fr": "DOUARNENEZ", "adresse": "Quai du Port Rhu, 29100 Douarnenez, France", "latitude": 48.0918983, "longitude": -4.3331452, "desc_bzh": null, "desc_fr": null, "commentaires": null, "activation": 1 }, "geometry": { "type": "Point", "coordinates": [ -4.3331452, 48.0918983 ] } },
{ "type": "Feature", "properties": { "id": 79, "km": 79, "secteur": 1, "jour": "05\/05\/2018", "heure": "03:05:52", "temps": "6:14", "commune_br": "DOUARNENEZ", "commune_fr": "DOUARNENEZ", "adresse": "25 Boulevard du Général de Gaulle, 29100 Douarnenez, France", "latitude": 48.0839315, "longitude": -4.3307846, "desc_bzh": null, "desc_fr": null, "commentaires": null, "activation": 1 }, "geometry": { "type": "Point", "coordinates": [ -4.33078460000002, 48.0839315 ] } },
{ "type": "Feature", "properties": { "id": 80, "km": 80, "secteur": 1, "jour": "05\/05\/2018", "heure": "03:12:06", "temps": "6:14", "commune_br": "DOUARNENEZ", "commune_fr": "DOUARNENEZ", "adresse": "D143, 29100 Douarnenez, France", "latitude": 48.0742792, "longitude": -4.3295568999999396, "desc_bzh": null, "desc_fr": null, "commentaires": null, "activation": 1 }, "geometry": { "type": "Point", "coordinates": [ -4.3295569, 48.0742792 ] } },
{ "type": "Feature", "properties": { "id": 81, "km": 81, "secteur": 1, "jour": "05\/05\/2018", "heure": "03:18:20", "temps": "6:14", "commune_br": "DOUARNENEZ", "commune_fr": "DOUARNENEZ", "adresse": null, "latitude": 48.072573, "longitude": -4.331212, "desc_bzh": null, "desc_fr": null, "commentaires": null, "activation": 1 }, "geometry": { "type": "Point", "coordinates": [ -4.331212, 48.072573 ] } },
{ "type": "Feature", "properties": { "id": 82, "km": 82, "secteur": 1, "jour": "05\/05\/2018", "heure": "03:24:34", "temps": "6:14", "commune_br": "POULDREGAD", "commune_fr": "POULDERGAT", "adresse": "D143, 29100 Pouldergat, France", "latitude": 48.066464, "longitude": -4.3326455, "desc_bzh": null, "desc_fr": null, "commentaires": null, "activation": 1 }, "geometry": { "type": "Point", "coordinates": [ -4.33264550000001, 48.066464 ] } },
{ "type": "Feature", "properties": { "id": 83, "km": 83, "secteur": 1, "jour": "05\/05\/2018", "heure": "03:30:48", "temps": "6:14", "commune_br": "POULDREGAD", "commune_fr": "POULDERGAT", "adresse": "Kerlivit, 29100 Douarnenez, France", "latitude": 48.0588764, "longitude": -4.3310279, "desc_bzh": null, "desc_fr": null, "commentaires": null, "activation": 1 }, "geometry": { "type": "Point", "coordinates": [ -4.3310279, 48.0588764 ] } },
{ "type": "Feature", "properties": { "id": 84, "km": 84, "secteur": 1, "jour": "05\/05\/2018", "heure": "03:37:02", "temps": "6:14", "commune_br": "POULDREGAD", "commune_fr": "POULDERGAT", "adresse": "Lotissement de Bel air, 29100 Pouldergat, France", "latitude": 48.0475033, "longitude": -4.3252662, "desc_bzh": null, "desc_fr": null, "commentaires": null, "activation": 1 }, "geometry": { "type": "Point", "coordinates": [ -4.3252662, 48.0475033 ] } },
{ "type": "Feature", "properties": { "id": 85, "km": 85, "secteur": 1, "jour": "05\/05\/2018", "heure": "03:43:16", "temps": "6:14", "commune_br": "POULDREGAD", "commune_fr": "POULDERGAT", "adresse": "2 Foennec Veur, 29100 Pouldergat, France", "latitude": 48.0387089, "longitude": -4.3306833, "desc_bzh": null, "desc_fr": null, "commentaires": null, "activation": 1 }, "geometry": { "type": "Point", "coordinates": [ -4.33068330000003, 48.0387089 ] } },
{ "type": "Feature", "properties": { "id": 86, "km": 86, "secteur": 1, "jour": "05\/05\/2018", "heure": "03:49:30", "temps": "6:14", "commune_br": "POULDREGAD", "commune_fr": "POULDERGAT", "adresse": "147 D43, 29100 Pouldergat, France", "latitude": 48.0397323, "longitude": -4.3372237999999497, "desc_bzh": null, "desc_fr": null, "commentaires": null, "activation": 1 }, "geometry": { "type": "Point", "coordinates": [ -4.3372238, 48.0397323 ] } },
{ "type": "Feature", "properties": { "id": 87, "km": 87, "secteur": 1, "jour": "05\/05\/2018", "heure": "03:55:44", "temps": "6:14", "commune_br": "POULDREGAD", "commune_fr": "POULDERGAT", "adresse": "D43, 29100 Pouldergat, France", "latitude": 48.0408973, "longitude": -4.3506061, "desc_bzh": null, "desc_fr": null, "commentaires": null, "activation": 1 }, "geometry": { "type": "Point", "coordinates": [ -4.35060610000005, 48.0408973 ] } },
{ "type": "Feature", "properties": { "id": 88, "km": 88, "secteur": 1, "jour": "05\/05\/2018", "heure": "04:01:58", "temps": "6:14", "commune_br": "POULDREGAD", "commune_fr": "POULDERGAT", "adresse": "Lanvoezec, 29100 Pouldergat, France", "latitude": 48.0419547, "longitude": -4.3576063, "desc_bzh": null, "desc_fr": null, "commentaires": null, "activation": 1 }, "geometry": { "type": "Point", "coordinates": [ -4.35760630000004, 48.0419547 ] } },
{ "type": "Feature", "properties": { "id": 89, "km": 89, "secteur": 1, "jour": "05\/05\/2018", "heure": "04:08:12", "temps": "6:14", "commune_br": "KONFORZH-MEILAR", "commune_fr": "CONFORT MEILARS", "adresse": "Lanfiacre, Mahalon, France", "latitude": 48.044153, "longitude": -4.373649, "desc_bzh": null, "desc_fr": null, "commentaires": null, "activation": 1 }, "geometry": { "type": "Point", "coordinates": [ -4.373649, 48.044153 ] } },
{ "type": "Feature", "properties": { "id": 90, "km": 90, "secteur": 1, "jour": "05\/05\/2018", "heure": "04:14:26", "temps": "6:14", "commune_br": "POULLANN", "commune_fr": "POULLAN SUR MER", "adresse": "272 Kermaburon, 29100 Poullan-sur-Mer, France", "latitude": 48.0474564, "longitude": -4.3764682, "desc_bzh": null, "desc_fr": null, "commentaires": null, "activation": 1 }, "geometry": { "type": "Point", "coordinates": [ -4.3764682, 48.047456399999987 ] } },
{ "type": "Feature", "properties": { "id": 91, "km": 91, "secteur": 1, "jour": "05\/05\/2018", "heure": "04:20:40", "temps": "6:14", "commune_br": "POULLANN", "commune_fr": "POULLAN SUR MER", "adresse": "D765, 29100 Poullan-sur-Mer, France", "latitude": 48.0574806, "longitude": -4.3795998000001, "desc_bzh": null, "desc_fr": null, "commentaires": null, "activation": 1 }, "geometry": { "type": "Point", "coordinates": [ -4.37959980000005, 48.0574806 ] } },
{ "type": "Feature", "properties": { "id": 92, "km": 92, "secteur": 1, "jour": "05\/05\/2018", "heure": "04:26:54", "temps": "6:14", "commune_br": "POULLANN", "commune_fr": "POULLAN SUR MER", "adresse": "236-237 Kerviny, 29100 Poullan-sur-Mer, France", "latitude": 48.0562194, "longitude": -4.3834002, "desc_bzh": null, "desc_fr": null, "commentaires": null, "activation": 1 }, "geometry": { "type": "Point", "coordinates": [ -4.3834002, 48.0562194 ] } },
{ "type": "Feature", "properties": { "id": 93, "km": 93, "secteur": 1, "jour": "05\/05\/2018", "heure": "04:33:08", "temps": "6:14", "commune_br": "POULLANN", "commune_fr": "POULLAN SUR MER", "adresse": "242 Buzit, 29100 Poullan-sur-Mer, France", "latitude": 48.06566, "longitude": -4.38847, "desc_bzh": null, "desc_fr": null, "commentaires": null, "activation": 1 }, "geometry": { "type": "Point", "coordinates": [ -4.38847, 48.06566 ] } },
{ "type": "Feature", "properties": { "id": 94, "km": 94, "secteur": 1, "jour": "05\/05\/2018", "heure": "04:39:22", "temps": "6:14", "commune_br": "POULLANN", "commune_fr": "POULLAN SUR MER", "adresse": "Saint-Avit, 29100 Poullan-sur-Mer, France", "latitude": 48.071717, "longitude": -4.3987884000001, "desc_bzh": null, "desc_fr": null, "commentaires": null, "activation": 1 }, "geometry": { "type": "Point", "coordinates": [ -4.39878840000006, 48.071717 ] } },
{ "type": "Feature", "properties": { "id": 95, "km": 95, "secteur": 1, "jour": "05\/05\/2018", "heure": "04:45:36", "temps": "6:14", "commune_br": "POULLANN", "commune_fr": "POULLAN SUR MER", "adresse": "18 Rue du Capitaine Blanchard, 29100 Poullan-sur-Mer, France", "latitude": 48.0768326, "longitude": -4.4102023, "desc_bzh": null, "desc_fr": null, "commentaires": null, "activation": 1 }, "geometry": { "type": "Point", "coordinates": [ -4.41020230000004, 48.0768326 ] } },
{ "type": "Feature", "properties": { "id": 96, "km": 96, "secteur": 1, "jour": "05\/05\/2018", "heure": "04:51:50", "temps": "6:14", "commune_br": "POULLANN", "commune_fr": "POULLAN SUR MER", "adresse": "20 Rue Abbé Conan, 29100 Poullan-sur-Mer, France", "latitude": 48.0797456, "longitude": -4.418311, "desc_bzh": null, "desc_fr": null, "commentaires": null, "activation": 1 }, "geometry": { "type": "Point", "coordinates": [ -4.418311, 48.0797456 ] } },
{ "type": "Feature", "properties": { "id": 97, "km": 97, "secteur": 1, "jour": "05\/05\/2018", "heure": "04:58:04", "temps": "6:14", "commune_br": "KONFORZH-MEILAR", "commune_fr": "CONFORT MEILARS", "adresse": "Hent Lestreux", "latitude": 48.07661, "longitude": -4.42981, "desc_bzh": null, "desc_fr": null, "commentaires": null, "activation": 1 }, "geometry": { "type": "Point", "coordinates": [ -4.42981, 48.07661 ] } },
{ "type": "Feature", "properties": { "id": 98, "km": 98, "secteur": 1, "jour": "05\/05\/2018", "heure": "05:04:18", "temps": "6:14", "commune_br": "KONFORZH-MEILAR", "commune_fr": "CONFORT-MEILARS", "adresse": "133 Lestreux Vihan, 29790 Confort-Meilars, France", "latitude": 48.0704499, "longitude": -4.4367293, "desc_bzh": null, "desc_fr": null, "commentaires": null, "activation": 1 }, "geometry": { "type": "Point", "coordinates": [ -4.43672930000002, 48.0704499 ] } },
{ "type": "Feature", "properties": { "id": 99, "km": 99, "secteur": 1, "jour": "05\/05\/2018", "heure": "05:10:32", "temps": "6:14", "commune_br": "KONFORZH-MEILAR", "commune_fr": "CONFORT MEILARS", "adresse": "129 Moulin de Kerstrad, 29790 Confort-Meilars, France", "latitude": 48.061873, "longitude": -4.4379969, "desc_bzh": null, "desc_fr": null, "commentaires": null, "activation": 1 }, "geometry": { "type": "Point", "coordinates": [ -4.43799690000003, 48.061873 ] } },
{ "type": "Feature", "properties": { "id": 100, "km": 100, "secteur": 1, "jour": "05\/05\/2018", "heure": "05:16:46", "temps": "6:14", "commune_br": "KONFORZH-MEILAR", "commune_fr": "CONFORT MEILARS", "adresse": "Keravel, 29790 Confort-Meilars, France", "latitude": 48.052943, "longitude": -4.434205, "desc_bzh": null, "desc_fr": null, "commentaires": null, "activation": 1 }, "geometry": { "type": "Point", "coordinates": [ -4.434205, 48.052943 ] } },
{ "type": "Feature", "properties": { "id": 101, "km": 101, "secteur": 1, "jour": "05\/05\/2018", "heure": "05:23:00", "temps": "6:14", "commune_br": "KONFORZH-MEILAR", "commune_fr": "CONFORT MEILARS", "adresse": "20 Kerhos, 29790 Confort-Meilars, France", "latitude": 48.0456614, "longitude": -4.4317533999999297, "desc_bzh": null, "desc_fr": null, "commentaires": null, "activation": 1 }, "geometry": { "type": "Point", "coordinates": [ -4.4317534, 48.0456614 ] } },
{ "type": "Feature", "properties": { "id": 102, "km": 102, "secteur": 1, "jour": "05\/05\/2018", "heure": "05:29:14", "temps": "6:14", "commune_br": "KONFORZH-MEILAR", "commune_fr": "CONFORT MEILARS", "adresse": "Hent Mahalon", "latitude": 48.03977, "longitude": -4.43309, "desc_bzh": null, "desc_fr": null, "commentaires": null, "activation": 1 }, "geometry": { "type": "Point", "coordinates": [ -4.43309, 48.03977 ] } },
{ "type": "Feature", "properties": { "id": 103, "km": 103, "secteur": 1, "jour": "05\/05\/2018", "heure": "05:35:28", "temps": "6:14", "commune_br": "MAHALON", "commune_fr": "MAHALON", "adresse": "Kerandraon, 29790 Mahalon, France", "latitude": 48.0368385, "longitude": -4.439374, "desc_bzh": null, "desc_fr": null, "commentaires": null, "activation": 1 }, "geometry": { "type": "Point", "coordinates": [ -4.439374, 48.036838499999988 ] } },
{ "type": "Feature", "properties": { "id": 104, "km": 104, "secteur": 1, "jour": "05\/05\/2018", "heure": "05:41:42", "temps": "6:14", "commune_br": "MAHALON", "commune_fr": "MAHALON", "adresse": "94 Kergolc H, 29790 Mahalon, France", "latitude": 48.0358488, "longitude": -4.4516056, "desc_bzh": null, "desc_fr": null, "commentaires": null, "activation": 1 }, "geometry": { "type": "Point", "coordinates": [ -4.4516056, 48.0358488 ] } },
{ "type": "Feature", "properties": { "id": 105, "km": 105, "secteur": 1, "jour": "05\/05\/2018", "heure": "05:47:56", "temps": "6:14", "commune_br": "MAHALON", "commune_fr": "MAHALON", "adresse": "90 Lanrin, 29790 Mahalon, France", "latitude": 48.0356617, "longitude": -4.4634102, "desc_bzh": null, "desc_fr": null, "commentaires": null, "activation": 1 }, "geometry": { "type": "Point", "coordinates": [ -4.4634102, 48.0356617 ] } },
{ "type": "Feature", "properties": { "id": 106, "km": 106, "secteur": 1, "jour": "05\/05\/2018", "heure": "05:54:10", "temps": "6:14", "commune_br": "MAHALON", "commune_fr": "CONFORT MEILARS", "adresse": "Kermaria, 29790 Mahalon, France", "latitude": 48.0369106, "longitude": -4.4749118, "desc_bzh": null, "desc_fr": null, "commentaires": null, "activation": 1 }, "geometry": { "type": "Point", "coordinates": [ -4.4749118, 48.0369106 ] } },
{ "type": "Feature", "properties": { "id": 107, "km": 107, "secteur": 1, "jour": "05\/05\/2018", "heure": "06:00:24", "temps": "6:14", "commune_br": "PONTEKROAZ", "commune_fr": "PONT CROIX", "adresse": "40 Rue de la Fontaine, 29790 Pont-Croix, France", "latitude": 48.042004, "longitude": -4.4864085, "desc_bzh": null, "desc_fr": null, "commentaires": "+ tro plasenn ar marc'had \/ + tour de la place du marché, dans le sens anti-horaire", "activation": 1 }, "geometry": { "type": "Point", "coordinates": [ -4.48640850000004, 48.042004 ] } },
{ "type": "Feature", "properties": { "id": 108, "km": 108, "secteur": 1, "jour": "05\/05\/2018", "heure": "06:06:38", "temps": "6:14", "commune_br": "PONTEKROAZ", "commune_fr": "PONT CROIX", "adresse": "13 Boulevard Général de Gaulle, 29790 Pont-Croix, France", "latitude": 48.0428775, "longitude": -4.4879965, "desc_bzh": null, "desc_fr": null, "commentaires": null, "activation": 1 }, "geometry": { "type": "Point", "coordinates": [ -4.48799650000001, 48.0428775 ] } },
{ "type": "Feature", "properties": { "id": 109, "km": 109, "secteur": 1, "jour": "05\/05\/2018", "heure": "06:12:52", "temps": "6:14", "commune_br": "PONTEKROAZ", "commune_fr": "PONT CROIX", "adresse": "D2, 29790 Pont-Croix, France", "latitude": 48.0387515, "longitude": -4.4872086, "desc_bzh": null, "desc_fr": null, "commentaires": null, "activation": 1 }, "geometry": { "type": "Point", "coordinates": [ -4.48720860000003, 48.0387515 ] } },
{ "type": "Feature", "properties": { "id": 110, "km": 110, "secteur": 1, "jour": "05\/05\/2018", "heure": "06:19:06", "temps": "6:14", "commune_br": "PREVEL", "commune_fr": "PLOUHINEC", "adresse": "Route de Pont-Croix, 29780 Plouhinec, France", "latitude": 48.0329238, "longitude": -4.4802473, "desc_bzh": null, "desc_fr": null, "commentaires": null, "activation": 1 }, "geometry": { "type": "Point", "coordinates": [ -4.4802473, 48.0329238 ] } },
{ "type": "Feature", "properties": { "id": 111, "km": 111, "secteur": 1, "jour": "05\/05\/2018", "heure": "06:25:20", "temps": "6:14", "commune_br": "PLEHENEG", "commune_fr": "PLOUHINEC", "adresse": "Route de Pont-Croix, 29780 Plouhinec, France", "latitude": 48.025966, "longitude": -4.47636, "desc_bzh": null, "desc_fr": null, "commentaires": null, "activation": 1 }, "geometry": { "type": "Point", "coordinates": [ -4.47636, 48.025966 ] } },
{ "type": "Feature", "properties": { "id": 112, "km": 112, "secteur": 1, "jour": "05\/05\/2018", "heure": "06:31:34", "temps": "6:14", "commune_br": "PREVEL", "commune_fr": "PLOUHINEC", "adresse": "Rue du Maréchal Juin, 29780 Plouhinec, France", "latitude": 48.0182591, "longitude": -4.4698826, "desc_bzh": null, "desc_fr": null, "commentaires": null, "activation": 1 }, "geometry": { "type": "Point", "coordinates": [ -4.46988260000001, 48.018259099999987 ] } },
{ "type": "Feature", "properties": { "id": 113, "km": 113, "secteur": 1, "jour": "05\/05\/2018", "heure": "06:37:48", "temps": "6:14", "commune_br": "PREVEL", "commune_fr": "PLOUHINEC", "adresse": "21 Allée des Geais, 29780 Plouhinec, France", "latitude": 48.0123431, "longitude": -4.4628029, "desc_bzh": null, "desc_fr": null, "commentaires": null, "activation": 1 }, "geometry": { "type": "Point", "coordinates": [ -4.46280290000004, 48.0123431 ] } },
{ "type": "Feature", "properties": { "id": 114, "km": 114, "secteur": 1, "jour": "05\/05\/2018", "heure": "06:44:02", "temps": "6:14", "commune_br": "PLEHENEG", "commune_fr": "PLOUHINEC", "adresse": "5 D784, 29780 Plouhinec, France", "latitude": 48.0075122, "longitude": -4.4567016, "desc_bzh": null, "desc_fr": null, "commentaires": null, "activation": 1 }, "geometry": { "type": "Point", "coordinates": [ -4.4567016, 48.0075122 ] } },
{ "type": "Feature", "properties": { "id": 115, "km": 115, "secteur": 1, "jour": "05\/05\/2018", "heure": "06:50:16", "temps": "6:14", "commune_br": "PLEHENEG", "commune_fr": "PLOUHINEC", "adresse": "33 Rue de Ty Pic, 29780 Plouhinec, France", "latitude": 48.0028444, "longitude": -4.448932, "desc_bzh": null, "desc_fr": null, "commentaires": null, "activation": 1 }, "geometry": { "type": "Point", "coordinates": [ -4.448932, 48.0028444 ] } },
{ "type": "Feature", "properties": { "id": 116, "km": 116, "secteur": 1, "jour": "05\/05\/2018", "heure": "06:56:30", "temps": "6:14", "commune_br": "PREVEL", "commune_fr": "PLOUHINEC", "adresse": "D784, 29780 Plouhinec, France", "latitude": 47.9984664, "longitude": -4.4403124, "desc_bzh": null, "desc_fr": null, "commentaires": null, "activation": 1 }, "geometry": { "type": "Point", "coordinates": [ -4.44031240000004, 47.9984664 ] } },
{ "type": "Feature", "properties": { "id": 117, "km": 117, "secteur": 1, "jour": "05\/05\/2018", "heure": "07:02:44", "temps": "6:14", "commune_br": "PLOZEVED", "commune_fr": "PLOZÉVET", "adresse": "91 Rue d'Audierne", "latitude": 47.9914418, "longitude": -4.4338024, "desc_bzh": null, "desc_fr": null, "commentaires": null, "activation": 1 }, "geometry": { "type": "Point", "coordinates": [ -4.4338024, 47.9914418 ] } },
{ "type": "Feature", "properties": { "id": 118, "km": 118, "secteur": 1, "jour": "05\/05\/2018", "heure": "07:08:58", "temps": "6:14", "commune_br": "PLOZEVED", "commune_fr": "PLOZÉVET", "adresse": "11 Rue d'Audierne, 29710 Plozévet, France", "latitude": 47.9860146, "longitude": -4.4270777, "desc_bzh": null, "desc_fr": null, "commentaires": "11 Rue d'Audierne", "activation": 1 }, "geometry": { "type": "Point", "coordinates": [ -4.42707770000004, 47.9860146 ] } },
{ "type": "Feature", "properties": { "id": 119, "km": 119, "secteur": 1, "jour": "05\/05\/2018", "heure": "07:15:12", "temps": "6:14", "commune_br": "PLOZEVED", "commune_fr": "PLOZÉVET", "adresse": "30 Avenue Georges le Bail, 29710 Plozévet, France", "latitude": 47.9854548, "longitude": -4.4200321000001, "desc_bzh": null, "desc_fr": null, "commentaires": "30 Avenue Georges le Bail", "activation": 1 }, "geometry": { "type": "Point", "coordinates": [ -4.42003210000007, 47.9854548 ] } },
{ "type": "Feature", "properties": { "id": 120, "km": 120, "secteur": 1, "jour": "05\/05\/2018", "heure": "07:21:26", "temps": "6:14", "commune_br": "PLOZEVED", "commune_fr": "PLOZÉVET", "adresse": "2 Route de Lesmenguy, 29710 Plozévet, France", "latitude": 47.9807011, "longitude": -4.4145854, "desc_bzh": null, "desc_fr": null, "commentaires": null, "activation": 1 }, "geometry": { "type": "Point", "coordinates": [ -4.4145854, 47.9807011 ] } },
{ "type": "Feature", "properties": { "id": 121, "km": 121, "secteur": 1, "jour": "05\/05\/2018", "heure": "07:27:40", "temps": "6:14", "commune_br": "PLOZEVED", "commune_fr": "PLOZÉVET", "adresse": "Kerguinaou, 29710 Plozévet, France", "latitude": 47.9732292, "longitude": -4.4146813, "desc_bzh": null, "desc_fr": null, "commentaires": "Kerguinaou", "activation": 1 }, "geometry": { "type": "Point", "coordinates": [ -4.4146813, 47.973229200000013 ] } },
{ "type": "Feature", "properties": { "id": 122, "km": 122, "secteur": 1, "jour": "05\/05\/2018", "heure": "07:33:54", "temps": "6:14", "commune_br": "PLOZEVED", "commune_fr": "PLOZÉVET", "adresse": "745 Gorréquer, 29710 Plozévet, France", "latitude": 47.9666182, "longitude": -4.4186130000000503, "desc_bzh": null, "desc_fr": null, "commentaires": null, "activation": 1 }, "geometry": { "type": "Point", "coordinates": [ -4.418613, 47.9666182 ] } },
{ "type": "Feature", "properties": { "id": 123, "km": 123, "secteur": 1, "jour": "05\/05\/2018", "heure": "07:40:08", "temps": "6:14", "commune_br": "PLOZEVED", "commune_fr": "PLOZÉVET", "adresse": "768 Keristenvet, 29710 Plozévet, France", "latitude": 47.9580677, "longitude": -4.4168481, "desc_bzh": null, "desc_fr": null, "commentaires": null, "activation": 1 }, "geometry": { "type": "Point", "coordinates": [ -4.41684810000004, 47.9580677 ] } },
{ "type": "Feature", "properties": { "id": 124, "km": 124, "secteur": 1, "jour": "05\/05\/2018", "heure": "07:46:22", "temps": "6:14", "commune_br": "PLOZEVED", "commune_fr": "PLOZÉVET", "adresse": "765 Palud Pellan, 29710 Plozévet, France", "latitude": 47.9499755, "longitude": -4.4088306999999496, "desc_bzh": null, "desc_fr": null, "commentaires": null, "activation": 1 }, "geometry": { "type": "Point", "coordinates": [ -4.4088307, 47.9499755 ] } },
{ "type": "Feature", "properties": { "id": 125, "km": 125, "secteur": 1, "jour": "05\/05\/2018", "heure": "07:52:36", "temps": "6:14", "commune_br": "POULDREUZIG", "commune_fr": "POULDREUZIC", "adresse": "2 Rue du Port, 29710 Pouldreuzic, France", "latitude": 47.9434989, "longitude": -4.4041454000001, "desc_bzh": null, "desc_fr": null, "commentaires": null, "activation": 1 }, "geometry": { "type": "Point", "coordinates": [ -4.40414540000006, 47.943498899999987 ] } },
{ "type": "Feature", "properties": { "id": 126, "km": 126, "secteur": 1, "jour": "05\/05\/2018", "heure": "07:58:50", "temps": "6:14", "commune_br": "POULDREUZIG", "commune_fr": "POULDREUZIC", "adresse": "D40, 29710 Pouldreuzic, France", "latitude": 47.9396126, "longitude": -4.4023657, "desc_bzh": null, "desc_fr": null, "commentaires": null, "activation": 1 }, "geometry": { "type": "Point", "coordinates": [ -4.40236570000002, 47.9396126 ] } },
{ "type": "Feature", "properties": { "id": 127, "km": 127, "secteur": 1, "jour": "05\/05\/2018", "heure": "08:05:04", "temps": "6:14", "commune_br": "PLOVAN", "commune_fr": "PLOVAN", "adresse": "69-70 Palud Trébanec, 29720 Plovan, France", "latitude": 47.936763, "longitude": -4.3956815, "desc_bzh": null, "desc_fr": null, "commentaires": null, "activation": 1 }, "geometry": { "type": "Point", "coordinates": [ -4.39568150000002, 47.936763 ] } },
{ "type": "Feature", "properties": { "id": 128, "km": 128, "secteur": 1, "jour": "05\/05\/2018", "heure": "08:11:18", "temps": "6:14", "commune_br": "PLOVAN", "commune_fr": "PLOVAN", "adresse": "Unnamed Road, 29720 Plovan, France", "latitude": 47.9302445, "longitude": -4.387619, "desc_bzh": null, "desc_fr": null, "commentaires": null, "activation": 1 }, "geometry": { "type": "Point", "coordinates": [ -4.387619, 47.9302445 ] } },
{ "type": "Feature", "properties": { "id": 129, "km": 129, "secteur": 1, "jour": "05\/05\/2018", "heure": "08:17:32", "temps": "6:14", "commune_br": "PLOVAN", "commune_fr": "PLOVAN", "adresse": "Kerguen, 29720 Plovan, France", "latitude": 47.9272992, "longitude": -4.3805422, "desc_bzh": null, "desc_fr": null, "commentaires": null, "activation": 1 }, "geometry": { "type": "Point", "coordinates": [ -4.38054220000004, 47.9272992 ] } },
{ "type": "Feature", "properties": { "id": 130, "km": 130, "secteur": 1, "jour": "05\/05\/2018", "heure": "08:23:46", "temps": "6:14", "commune_br": "PLOVAN", "commune_fr": "PLOVAN", "adresse": "Nerizelec", "latitude": 47.9249419, "longitude": -4.3747041, "desc_bzh": null, "desc_fr": null, "commentaires": null, "activation": 1 }, "geometry": { "type": "Point", "coordinates": [ -4.37470410000003, 47.9249419 ] } },
{ "type": "Feature", "properties": { "id": 131, "km": 131, "secteur": 1, "jour": "05\/05\/2018", "heure": "08:30:00", "temps": "6:14", "commune_br": "PLOVAN", "commune_fr": "PLOVAN", "adresse": "2 Rue de la Cannebière, 29720 Plovan, France", "latitude": 47.917175, "longitude": -4.3669136999999401, "desc_bzh": null, "desc_fr": null, "commentaires": null, "activation": 1 }, "geometry": { "type": "Point", "coordinates": [ -4.3669137, 47.917175 ] } },
{ "type": "Feature", "properties": { "id": 132, "km": 132, "secteur": 1, "jour": "05\/05\/2018", "heure": "08:36:14", "temps": "6:14", "commune_br": "PLOVAN", "commune_fr": "PLOVAN", "adresse": "Route de Languidou", "latitude": 47.913919, "longitude": -4.358614, "desc_bzh": null, "desc_fr": null, "commentaires": null, "activation": 1 }, "geometry": { "type": "Point", "coordinates": [ -4.358614, 47.913919 ] } },
{ "type": "Feature", "properties": { "id": 133, "km": 133, "secteur": 1, "jour": "05\/05\/2018", "heure": "08:42:28", "temps": "6:14", "commune_br": "TRÊGAD", "commune_fr": "TRÉOGAT", "adresse": "Kerguideau, 29720 Tréogat, France", "latitude": 47.9132802, "longitude": -4.3479959, "desc_bzh": null, "desc_fr": null, "commentaires": null, "activation": 1 }, "geometry": { "type": "Point", "coordinates": [ -4.3479959, 47.9132802 ] } },
{ "type": "Feature", "properties": { "id": 134, "km": 134, "secteur": 1, "jour": "05\/05\/2018", "heure": "08:48:42", "temps": "6:14", "commune_br": "TRÊGAD", "commune_fr": "TRÉOGAT", "adresse": "98-99 Kergroas, 29720 Tréogat, France", "latitude": 47.9101102, "longitude": -4.3394653, "desc_bzh": null, "desc_fr": null, "commentaires": null, "activation": 1 }, "geometry": { "type": "Point", "coordinates": [ -4.33946530000003, 47.9101102 ] } },
{ "type": "Feature", "properties": { "id": 135, "km": 135, "secteur": 1, "jour": "05\/05\/2018", "heure": "08:54:56", "temps": "6:14", "commune_br": "TRÊGAD", "commune_fr": "TRÉOGAT", "adresse": "160 Penhors, 29720 Tréogat, France", "latitude": 47.9056197, "longitude": -4.3355895, "desc_bzh": null, "desc_fr": null, "commentaires": null, "activation": 1 }, "geometry": { "type": "Point", "coordinates": [ -4.3355895, 47.9056197 ] } },
{ "type": "Feature", "properties": { "id": 136, "km": 136, "secteur": 1, "jour": "05\/05\/2018", "heure": "09:01:10", "temps": "6:14", "commune_br": "TREGENEG", "commune_fr": "TRÉGUENNEC", "adresse": "Léac H ar C Ham, 29720 Tréguennec, France", "latitude": 47.8979685, "longitude": -4.3390303, "desc_bzh": null, "desc_fr": null, "commentaires": null, "activation": 1 }, "geometry": { "type": "Point", "coordinates": [ -4.3390303, 47.8979685 ] } },
{ "type": "Feature", "properties": { "id": 1863, "km": 137, "secteur": 1, "jour": "05\/05\/2018", "heure": "09:07:24", "temps": "6:14", "commune_br": "TREGENEG", "commune_fr": "TRÉGUENNEC", "adresse": "Kervaillant", "latitude": 47.8931, "longitude": -4.343781, "desc_bzh": null, "desc_fr": null, "commentaires": null, "activation": 1 }, "geometry": { "type": "Point", "coordinates": [ -4.343781, 47.8931 ] } },
{ "type": "Feature", "properties": { "id": 138, "km": 138, "secteur": 1, "jour": "05\/05\/2018", "heure": "09:13:38", "temps": "6:14", "commune_br": "TREGENEG", "commune_fr": "TRÉGUENNEC", "adresse": "Unnamed Road, 29720 Tréguennec, France", "latitude": 47.8832468, "longitude": -4.3394612, "desc_bzh": null, "desc_fr": null, "commentaires": null, "activation": 1 }, "geometry": { "type": "Point", "coordinates": [ -4.3394612, 47.8832468 ] } },
{ "type": "Feature", "properties": { "id": 139, "km": 139, "secteur": 1, "jour": "05\/05\/2018", "heure": "09:19:52", "temps": "6:14", "commune_br": "TREGENEG", "commune_fr": "TRÉGUENNEC", "adresse": null, "latitude": 47.877986, "longitude": -4.338196, "desc_bzh": null, "desc_fr": null, "commentaires": null, "activation": 1 }, "geometry": { "type": "Point", "coordinates": [ -4.338196, 47.877986 ] } },
{ "type": "Feature", "properties": { "id": 140, "km": 140, "secteur": 1, "jour": "05\/05\/2018", "heure": "09:26:06", "temps": "6:14", "commune_br": "TREGENEG", "commune_fr": "TRÉGUENNEC", "adresse": "Route de Saint-Vio", "latitude": 47.869396, "longitude": -4.338448, "desc_bzh": null, "desc_fr": null, "commentaires": null, "activation": 1 }, "geometry": { "type": "Point", "coordinates": [ -4.338448, 47.869396 ] } },
{ "type": "Feature", "properties": { "id": 141, "km": 141, "secteur": 1, "jour": "05\/05\/2018", "heure": "09:32:20", "temps": "6:14", "commune_br": "PLONEOUR LANWERN", "commune_fr": "PLONÉOUR LANVERN", "adresse": "Unnamed Road, 29720 Plonéour-Lanvern, France", "latitude": 47.8668027, "longitude": -4.3350867, "desc_bzh": null, "desc_fr": null, "commentaires": "Route de Saint-Vio, C3", "activation": 1 }, "geometry": { "type": "Point", "coordinates": [ -4.33508670000003, 47.8668027 ] } },
{ "type": "Feature", "properties": { "id": 142, "km": 142, "secteur": 1, "jour": "05\/05\/2018", "heure": "09:38:34", "temps": "6:14", "commune_br": "PLONEOUR LANWERN", "commune_fr": "PLONÉOUR LANVERN", "adresse": "999 Le Stang, 29720 Plonéour-Lanvern, France", "latitude": 47.8677729, "longitude": -4.3247709, "desc_bzh": null, "desc_fr": null, "commentaires": null, "activation": 1 }, "geometry": { "type": "Point", "coordinates": [ -4.3247709, 47.8677729 ] } },
{ "type": "Feature", "properties": { "id": 1862, "km": 143, "secteur": 1, "jour": "05\/05\/2018", "heure": "09:44:48", "temps": "6:14", "commune_br": "SANT YANN DROLIMON", "commune_fr": "SAINT JEAN TROLIMON", "adresse": "Kervelec, 29120 Saint-Jean-Trolimon, France", "latitude": 47.8629112, "longitude": -4.3248934000001, "desc_bzh": null, "desc_fr": null, "commentaires": null, "activation": 1 }, "geometry": { "type": "Point", "coordinates": [ -4.32489340000006, 47.8629112 ] } },
{ "type": "Feature", "properties": { "id": 143, "km": 144, "secteur": 1, "jour": "05\/05\/2018", "heure": "09:51:02", "temps": "6:14", "commune_br": "SANT YANN DROLIMON", "commune_fr": "SAINT JEAN TROLIMON", "adresse": "Tronoan, 29120 Saint-Jean-Trolimon, France", "latitude": 47.856392, "longitude": -4.328098, "desc_bzh": null, "desc_fr": null, "commentaires": null, "activation": 1 }, "geometry": { "type": "Point", "coordinates": [ -4.328098, 47.856392 ] } },
{ "type": "Feature", "properties": { "id": 144, "km": 145, "secteur": 1, "jour": "05\/05\/2018", "heure": "09:57:16", "temps": "6:14", "commune_br": "PLOVEUR", "commune_fr": "PLOMEUR", "adresse": "Saint-Saturnin, 29120 Plomeur, France", "latitude": 47.8498095, "longitude": -4.327354, "desc_bzh": null, "desc_fr": null, "commentaires": null, "activation": 1 }, "geometry": { "type": "Point", "coordinates": [ -4.327354, 47.8498095 ] } },
{ "type": "Feature", "properties": { "id": 145, "km": 146, "secteur": 1, "jour": "05\/05\/2018", "heure": "10:03:30", "temps": "6:14", "commune_br": "PLOVEUR", "commune_fr": "PLOMEUR", "adresse": "Croas an Dour, 29120 Plomeur, France", "latitude": 47.8414408, "longitude": -4.3263692, "desc_bzh": null, "desc_fr": null, "commentaires": "Croas an Dour", "activation": 1 }, "geometry": { "type": "Point", "coordinates": [ -4.32636920000005, 47.8414408 ] } },
{ "type": "Feature", "properties": { "id": 146, "km": 147, "secteur": 1, "jour": "05\/05\/2018", "heure": "10:09:44", "temps": "6:14", "commune_br": "PLOVEUR", "commune_fr": "PLOMEUR", "adresse": "17 Roz an Tremen, 29120 Plomeur, France", "latitude": 47.83715, "longitude": -4.3288442000001, "desc_bzh": null, "desc_fr": null, "commentaires": null, "activation": 1 }, "geometry": { "type": "Point", "coordinates": [ -4.32884420000005, 47.83715 ] } },
{ "type": "Feature", "properties": { "id": 147, "km": 148, "secteur": 1, "jour": "05\/05\/2018", "heure": "10:15:58", "temps": "6:14", "commune_br": "PLOVEUR", "commune_fr": "PLOMEUR", "adresse": "Lezinadou, 29120 Plomeur, France", "latitude": 47.837617, "longitude": -4.3147069, "desc_bzh": null, "desc_fr": null, "commentaires": null, "activation": 1 }, "geometry": { "type": "Point", "coordinates": [ -4.31470690000003, 47.837617 ] } },
{ "type": "Feature", "properties": { "id": 148, "km": 149, "secteur": 1, "jour": "05\/05\/2018", "heure": "10:22:12", "temps": "6:14", "commune_br": "PLOVEUR", "commune_fr": "PLOMEUR", "adresse": "175 Le Run, 29120 Plomeur, France", "latitude": 47.8378929, "longitude": -4.3019687999999396, "desc_bzh": null, "desc_fr": null, "commentaires": null, "activation": 1 }, "geometry": { "type": "Point", "coordinates": [ -4.3019688, 47.8378929 ] } },
{ "type": "Feature", "properties": { "id": 149, "km": 150, "secteur": 1, "jour": "05\/05\/2018", "heure": "10:28:26", "temps": "6:14", "commune_br": "PLOVEUR", "commune_fr": "PLOMEUR", "adresse": "Route de Penmarch, 29120 Plomeur, France", "latitude": 47.8381691, "longitude": -4.2903696999999301, "desc_bzh": null, "desc_fr": null, "commentaires": null, "activation": 1 }, "geometry": { "type": "Point", "coordinates": [ -4.2903697, 47.8381691 ] } },
{ "type": "Feature", "properties": { "id": 150, "km": 151, "secteur": 1, "jour": "05\/05\/2018", "heure": "10:34:40", "temps": "6:14", "commune_br": "PLOVEUR", "commune_fr": "PLOMEUR", "adresse": "1 Place de la Mairie, 29120 Plomeur, France", "latitude": 47.8416098, "longitude": -4.2829791, "desc_bzh": null, "desc_fr": null, "commentaires": "Les enfants courent le km et s'arrêtent à l'école (police Div Yezh)", "activation": 1 }, "geometry": { "type": "Point", "coordinates": [ -4.28297910000003, 47.8416098 ] } },
{ "type": "Feature", "properties": { "id": 151, "km": 152, "secteur": 1, "jour": "05\/05\/2018", "heure": "10:40:54", "temps": "6:14", "commune_br": "PLOVEUR", "commune_fr": "PLOMEUR", "adresse": "Kervouyen Saoul, 29120 Plomeur, France", "latitude": 47.8451818, "longitude": -4.2743098, "desc_bzh": null, "desc_fr": null, "commentaires": null, "activation": 1 }, "geometry": { "type": "Point", "coordinates": [ -4.2743098, 47.8451818 ] } },
{ "type": "Feature", "properties": { "id": 152, "km": 153, "secteur": 1, "jour": "05\/05\/2018", "heure": "10:47:08", "temps": "6:14", "commune_br": "PLOVEUR", "commune_fr": "PLOMEUR", "adresse": "Penfrat, 29120", "latitude": 47.8459731, "longitude": -4.2654914, "desc_bzh": null, "desc_fr": null, "commentaires": null, "activation": 1 }, "geometry": { "type": "Point", "coordinates": [ -4.2654914, 47.845973099999988 ] } },
{ "type": "Feature", "properties": { "id": 153, "km": 154, "secteur": 1, "jour": "05\/05\/2018", "heure": "10:53:22", "temps": "6:14", "commune_br": "PLOVEUR", "commune_fr": "PLOMEUR", "adresse": "Langeriguin", "latitude": 47.8481462, "longitude": -4.2547825, "desc_bzh": null, "desc_fr": null, "commentaires": null, "activation": 1 }, "geometry": { "type": "Point", "coordinates": [ -4.25478250000003, 47.8481462 ] } },
{ "type": "Feature", "properties": { "id": 154, "km": 155, "secteur": 1, "jour": "05\/05\/2018", "heure": "10:59:36", "temps": "6:14", "commune_br": "PONT 'N ABAD", "commune_fr": "PONT L'ABBÉ", "adresse": "Chemin du Cosquer, 29120 Pont-l'Abbé, France", "latitude": 47.8508406, "longitude": -4.2447971, "desc_bzh": null, "desc_fr": null, "commentaires": null, "activation": 1 }, "geometry": { "type": "Point", "coordinates": [ -4.24479710000003, 47.8508406 ] } },
{ "type": "Feature", "properties": { "id": 155, "km": 156, "secteur": 1, "jour": "05\/05\/2018", "heure": "11:05:50", "temps": "6:14", "commune_br": "PONT 'N ABAD", "commune_fr": "PONT L'ABBÉ", "adresse": "15 Rue Guy le Garrec, 29120 Pont-l'Abbé, France", "latitude": 47.8579292, "longitude": -4.2393729, "desc_bzh": null, "desc_fr": null, "commentaires": null, "activation": 1 }, "geometry": { "type": "Point", "coordinates": [ -4.23937290000004, 47.8579292 ] } },
{ "type": "Feature", "properties": { "id": 157, "km": 157, "secteur": 1, "jour": "05\/05\/2018", "heure": "11:12:04", "temps": "6:14", "commune_br": "PONT 'N ABAD", "commune_fr": "PONT L'ABBÉ", "adresse": "Rue du lycée", "latitude": 47.86269, "longitude": -4.23172, "desc_bzh": null, "desc_fr": null, "commentaires": null, "activation": 1 }, "geometry": { "type": "Point", "coordinates": [ -4.23172, 47.86269 ] } },
{ "type": "Feature", "properties": { "id": 158, "km": 158, "secteur": 1, "jour": "05\/05\/2018", "heure": "11:18:18", "temps": "6:14", "commune_br": "PONT 'N ABAD", "commune_fr": "PONT L'ABBÉ", "adresse": "1 Rue Marcel Cariou, 29120 Pont-l'Abbé, France", "latitude": 47.86451, "longitude": -4.22155, "desc_bzh": null, "desc_fr": null, "commentaires": null, "activation": 1 }, "geometry": { "type": "Point", "coordinates": [ -4.22155, 47.86451 ] } },
{ "type": "Feature", "properties": { "id": 159, "km": 159, "secteur": 1, "jour": "05\/05\/2018", "heure": "11:24:32", "temps": "6:14", "commune_br": "PONT 'N ABAD", "commune_fr": "PONT L'ABBÉ", "adresse": "Rue Louis Lagadic", "latitude": 47.87165, "longitude": -4.2201, "desc_bzh": null, "desc_fr": null, "commentaires": null, "activation": 1 }, "geometry": { "type": "Point", "coordinates": [ -4.2201, 47.87165 ] } },
{ "type": "Feature", "properties": { "id": 160, "km": 160, "secteur": 1, "jour": "05\/05\/2018", "heure": "11:30:46", "temps": "6:14", "commune_br": "PONT 'N ABAD", "commune_fr": "PONT L'ABBÉ", "adresse": "Route de Quimper", "latitude": 47.87914, "longitude": -4.2169, "desc_bzh": null, "desc_fr": null, "commentaires": null, "activation": 1 }, "geometry": { "type": "Point", "coordinates": [ -4.2169, 47.87914 ] } },
{ "type": "Feature", "properties": { "id": 161, "km": 161, "secteur": 1, "jour": "05\/05\/2018", "heure": "11:37:00", "temps": "6:14", "commune_br": "PONT 'N ABAD", "commune_fr": "PONT L'ABBÉ", "adresse": "D240, 29120 Pont-l'Abbé, France", "latitude": 47.8887227, "longitude": -4.2121148, "desc_bzh": null, "desc_fr": null, "commentaires": null, "activation": 1 }, "geometry": { "type": "Point", "coordinates": [ -4.2121148, 47.8887227 ] } },
{ "type": "Feature", "properties": { "id": 162, "km": 162, "secteur": 1, "jour": "05\/05\/2018", "heure": "11:43:14", "temps": "6:14", "commune_br": "TREMEOG", "commune_fr": "TRÉMÉOC", "adresse": "Route de Pont-l'Abbé D240", "latitude": 47.89617, "longitude": -4.21439, "desc_bzh": null, "desc_fr": null, "commentaires": null, "activation": 1 }, "geometry": { "type": "Point", "coordinates": [ -4.21439, 47.89617 ] } },
{ "type": "Feature", "properties": { "id": 163, "km": 163, "secteur": 1, "jour": "05\/05\/2018", "heure": "11:49:28", "temps": "6:14", "commune_br": "TREMEOG", "commune_fr": "TRÉMÉOC", "adresse": "Route de Pont-l'Abbé D240", "latitude": 47.90309, "longitude": -4.21162, "desc_bzh": null, "desc_fr": null, "commentaires": null, "activation": 1 }, "geometry": { "type": "Point", "coordinates": [ -4.21162, 47.90309 ] } },
{ "type": "Feature", "properties": { "id": 164, "km": 164, "secteur": 1, "jour": "05\/05\/2018", "heure": "11:55:42", "temps": "6:14", "commune_br": "TREMEOG", "commune_fr": "TRÉMÉOC", "adresse": "Route de Plogastel D240", "latitude": 47.91043, "longitude": -4.21349, "desc_bzh": null, "desc_fr": null, "commentaires": null, "activation": 1 }, "geometry": { "type": "Point", "coordinates": [ -4.21349, 47.91043 ] } },
{ "type": "Feature", "properties": { "id": 165, "km": 165, "secteur": 1, "jour": "05\/05\/2018", "heure": "12:01:56", "temps": "6:14", "commune_br": "TREMEOG", "commune_fr": "TRÉMÉOC", "adresse": "Ty Campion D240", "latitude": 47.91695, "longitude": -4.22094, "desc_bzh": null, "desc_fr": null, "commentaires": null, "activation": 1 }, "geometry": { "type": "Point", "coordinates": [ -4.22094, 47.91695 ] } },
{ "type": "Feature", "properties": { "id": 166, "km": 166, "secteur": 1, "jour": "05\/05\/2018", "heure": "12:08:10", "temps": "6:14", "commune_br": "PLONEOUR LANWERN", "commune_fr": "PLONÉOUR LANVERN", "adresse": "D240", "latitude": 47.92624, "longitude": -4.22733, "desc_bzh": null, "desc_fr": null, "commentaires": null, "activation": 1 }, "geometry": { "type": "Point", "coordinates": [ -4.22733, 47.92624 ] } },
{ "type": "Feature", "properties": { "id": 167, "km": 167, "secteur": 1, "jour": "05\/05\/2018", "heure": "12:14:24", "temps": "6:14", "commune_br": "PLONEOUR LANWERN", "commune_fr": "PLONÉOUR LANVERN", "adresse": "12 D240, 29720 Plonéour-Lanvern, France", "latitude": 47.9340723, "longitude": -4.2324208, "desc_bzh": null, "desc_fr": null, "commentaires": null, "activation": 1 }, "geometry": { "type": "Point", "coordinates": [ -4.2324208, 47.9340723 ] } },
{ "type": "Feature", "properties": { "id": 168, "km": 168, "secteur": 1, "jour": "05\/05\/2018", "heure": "12:20:38", "temps": "6:14", "commune_br": "PLOGASTELL SANT JERMEN", "commune_fr": "PLOGASTEL SAINT GERMAIN", "adresse": "1225 Coat Saint-Honoré, 29720 Plonéour-Lanvern, France", "latitude": 47.9412509, "longitude": -4.2340658000001, "desc_bzh": null, "desc_fr": null, "commentaires": null, "activation": 1 }, "geometry": { "type": "Point", "coordinates": [ -4.23406580000005, 47.9412509 ] } },
{ "type": "Feature", "properties": { "id": 169, "km": 169, "secteur": 1, "jour": "05\/05\/2018", "heure": "12:26:52", "temps": "6:14", "commune_br": "PLOGASTELL SANT JERMEN", "commune_fr": "PLOGASTEL SAINT GERMAIN", "adresse": "382 Minven, 29710 Plogastel-Saint-Germain, France", "latitude": 47.9499252, "longitude": -4.2409016, "desc_bzh": null, "desc_fr": null, "commentaires": null, "activation": 1 }, "geometry": { "type": "Point", "coordinates": [ -4.24090160000003, 47.9499252 ] } },
{ "type": "Feature", "properties": { "id": 170, "km": 170, "secteur": 1, "jour": "05\/05\/2018", "heure": "12:33:06", "temps": "6:14", "commune_br": "PLOGASTELL SANT JERMEN", "commune_fr": "PLOGASTEL SAINT GERMAIN", "adresse": null, "latitude": 47.95789, "longitude": -4.24341, "desc_bzh": null, "desc_fr": null, "commentaires": null, "activation": 1 }, "geometry": { "type": "Point", "coordinates": [ -4.24341, 47.95789 ] } },
{ "type": "Feature", "properties": { "id": 171, "km": 171, "secteur": 1, "jour": "05\/05\/2018", "heure": "12:39:20", "temps": "6:14", "commune_br": "PLOGASTELL SANT JERMEN", "commune_fr": "PLOGASTEL SAINT GERMAIN", "adresse": "409 D240, 29710 Plogastel-Saint-Germain, France", "latitude": 47.9665906, "longitude": -4.2482485, "desc_bzh": null, "desc_fr": null, "commentaires": null, "activation": 1 }, "geometry": { "type": "Point", "coordinates": [ -4.24824850000005, 47.9665906 ] } },
{ "type": "Feature", "properties": { "id": 172, "km": 172, "secteur": 1, "jour": "05\/05\/2018", "heure": "12:45:34", "temps": "6:14", "commune_br": "PLOGASTELL SANT JERMEN", "commune_fr": "PLOGASTEL SAINT GERMAIN", "adresse": "D240, 29710 Plogastel-Saint-Germain, France", "latitude": 47.9743388, "longitude": -4.2504172, "desc_bzh": null, "desc_fr": null, "commentaires": null, "activation": 1 }, "geometry": { "type": "Point", "coordinates": [ -4.25041720000002, 47.9743388 ] } },
{ "type": "Feature", "properties": { "id": 173, "km": 173, "secteur": 1, "jour": "05\/05\/2018", "heure": "12:51:48", "temps": "6:14", "commune_br": "PLOGASTELL SANT JERMEN", "commune_fr": "PLOGASTEL SAINT GERMAIN", "adresse": "D240, 29710 Plogastel-Saint-Germain, France", "latitude": 47.9810131, "longitude": -4.2536062, "desc_bzh": null, "desc_fr": null, "commentaires": null, "activation": 1 }, "geometry": { "type": "Point", "coordinates": [ -4.25360620000004, 47.9810131 ] } },
{ "type": "Feature", "properties": { "id": 174, "km": 174, "secteur": 1, "jour": "05\/05\/2018", "heure": "12:58:02", "temps": "6:14", "commune_br": "PLOGASTELL SANT JERMEN", "commune_fr": "PLOGASTEL SAINT GERMAIN", "adresse": "206 Pont Guen, 29710 Plogastel-Saint-Germain, France", "latitude": 47.9824358, "longitude": -4.2634654999999402, "desc_bzh": null, "desc_fr": null, "commentaires": null, "activation": 1 }, "geometry": { "type": "Point", "coordinates": [ -4.2634655, 47.9824358 ] } },
{ "type": "Feature", "properties": { "id": 175, "km": 175, "secteur": 1, "jour": "05\/05\/2018", "heure": "13:04:16", "temps": "6:14", "commune_br": "PLOGASTELL SANT JERMEN", "commune_fr": "PLOGASTEL SAINT GERMAIN", "adresse": "2 Rue de Briscoul, 29710 Plogastel-Saint-Germain, France", "latitude": 47.9814744, "longitude": -4.2708969, "desc_bzh": null, "desc_fr": null, "commentaires": null, "activation": 1 }, "geometry": { "type": "Point", "coordinates": [ -4.27089690000003, 47.9814744 ] } },
{ "type": "Feature", "properties": { "id": 176, "km": 176, "secteur": 1, "jour": "05\/05\/2018", "heure": "13:10:30", "temps": "6:14", "commune_br": "PLOGASTELL SANT JERMEN", "commune_fr": "PLOGASTEL SAINT GERMAIN", "adresse": "162 Briscoul Huella, 29710 Plogastel-Saint-Germain, France", "latitude": 47.975787, "longitude": -4.2680467, "desc_bzh": null, "desc_fr": null, "commentaires": null, "activation": 1 }, "geometry": { "type": "Point", "coordinates": [ -4.26804670000001, 47.975787 ] } },
{ "type": "Feature", "properties": { "id": 177, "km": 177, "secteur": 1, "jour": "05\/05\/2018", "heure": "13:16:44", "temps": "6:14", "commune_br": "PLOGASTELL SANT JERMEN", "commune_fr": "PLOGASTEL SAINT GERMAIN", "adresse": "313 Kervayec, 29710 Plogastel-Saint-Germain, France", "latitude": 47.9700813, "longitude": -4.2613052, "desc_bzh": null, "desc_fr": null, "commentaires": null, "activation": 1 }, "geometry": { "type": "Point", "coordinates": [ -4.26130520000004, 47.9700813 ] } },
{ "type": "Feature", "properties": { "id": 178, "km": 178, "secteur": 1, "jour": "05\/05\/2018", "heure": "13:22:58", "temps": "6:14", "commune_br": "PLOGASTELL SANT JERMEN", "commune_fr": "PLOGASTEL SAINT GERMAIN", "adresse": "328 D40, 29710 Plogastel-Saint-Germain, France", "latitude": 47.9712083, "longitude": -4.24915, "desc_bzh": null, "desc_fr": null, "commentaires": null, "activation": 1 }, "geometry": { "type": "Point", "coordinates": [ -4.24915, 47.9712083 ] } },
{ "type": "Feature", "properties": { "id": 179, "km": 179, "secteur": 1, "jour": "05\/05\/2018", "heure": "13:29:12", "temps": "6:14", "commune_br": "PLOGASTELL SANT JERMEN", "commune_fr": "PLOGASTEL SAINT GERMAIN", "adresse": "337 Ty Névez Kerdaniel, 29710 Plogastel-Saint-Germain, France", "latitude": 47.9747414, "longitude": -4.2386766, "desc_bzh": null, "desc_fr": null, "commentaires": null, "activation": 1 }, "geometry": { "type": "Point", "coordinates": [ -4.2386766, 47.9747414 ] } },
{ "type": "Feature", "properties": { "id": 180, "km": 180, "secteur": 1, "jour": "05\/05\/2018", "heure": "13:35:26", "temps": "6:14", "commune_br": "PLOGASTELL SANT JERMEN", "commune_fr": "PLOGASTEL SAINT GERMAIN", "adresse": "D40, 29700 Pluguffan, France", "latitude": 47.9757568, "longitude": -4.2275036999999402, "desc_bzh": null, "desc_fr": null, "commentaires": null, "activation": 1 }, "geometry": { "type": "Point", "coordinates": [ -4.2275037, 47.9757568 ] } },
{ "type": "Feature", "properties": { "id": 181, "km": 181, "secteur": 1, "jour": "05\/05\/2018", "heure": "13:41:40", "temps": "6:14", "commune_br": "PLUGUEN", "commune_fr": "PLUGUFFAN", "adresse": "D40, 29700 Pluguffan, France", "latitude": 47.9796218, "longitude": -4.2170723, "desc_bzh": null, "desc_fr": null, "commentaires": null, "activation": 1 }, "geometry": { "type": "Point", "coordinates": [ -4.21707230000004, 47.9796218 ] } },
{ "type": "Feature", "properties": { "id": 182, "km": 182, "secteur": 1, "jour": "05\/05\/2018", "heure": "13:47:54", "temps": "6:14", "commune_br": "PLUGUEN", "commune_fr": "PLUGUFFAN", "adresse": "241 Kerven Vihan, 29700 Pluguffan, France", "latitude": 47.9804992, "longitude": -4.2057291, "desc_bzh": null, "desc_fr": null, "commentaires": null, "activation": 1 }, "geometry": { "type": "Point", "coordinates": [ -4.2057291, 47.9804992 ] } },
{ "type": "Feature", "properties": { "id": 183, "km": 183, "secteur": 1, "jour": "05\/05\/2018", "heure": "13:54:08", "temps": "6:14", "commune_br": "PLUGUEN", "commune_fr": "PLUGUFFAN", "adresse": "Kergebed, 29700 Pluguffan, France", "latitude": 47.9781074, "longitude": -4.1934246000001, "desc_bzh": null, "desc_fr": null, "commentaires": null, "activation": 1 }, "geometry": { "type": "Point", "coordinates": [ -4.19342460000007, 47.9781074 ] } },
{ "type": "Feature", "properties": { "id": 184, "km": 184, "secteur": 1, "jour": "05\/05\/2018", "heure": "14:00:22", "temps": "6:14", "commune_br": "PLUGUEN", "commune_fr": "PLUGUFFAN", "adresse": "D56, 29700 Pluguffan, France", "latitude": 47.97476, "longitude": -4.188927, "desc_bzh": null, "desc_fr": null, "commentaires": null, "activation": 1 }, "geometry": { "type": "Point", "coordinates": [ -4.188927, 47.97476 ] } },
{ "type": "Feature", "properties": { "id": 185, "km": 185, "secteur": 1, "jour": "05\/05\/2018", "heure": "14:06:36", "temps": "6:14", "commune_br": "PLUGUEN", "commune_fr": "PLUGUFFAN", "adresse": "D56, 29700 Pluguffan, France", "latitude": 47.9688857, "longitude": -4.1820984, "desc_bzh": null, "desc_fr": null, "commentaires": null, "activation": 1 }, "geometry": { "type": "Point", "coordinates": [ -4.1820984, 47.9688857 ] } },
{ "type": "Feature", "properties": { "id": 186, "km": 186, "secteur": 1, "jour": "05\/05\/2018", "heure": "14:12:50", "temps": "6:14", "commune_br": "PLUGUEN", "commune_fr": "PLUGUFFAN", "adresse": "Kelarnig, 29700 Pluguffan, France", "latitude": 47.9621195, "longitude": -4.1722619, "desc_bzh": null, "desc_fr": null, "commentaires": null, "activation": 1 }, "geometry": { "type": "Point", "coordinates": [ -4.1722619, 47.9621195 ] } },
{ "type": "Feature", "properties": { "id": 187, "km": 187, "secteur": 1, "jour": "05\/05\/2018", "heure": "14:19:04", "temps": "6:14", "commune_br": "PLUGUEN", "commune_fr": "PLUGUFFAN", "adresse": "336 Kerbenhir, 29700 Pluguffan, France", "latitude": 47.9548677, "longitude": -4.1684858999999497, "desc_bzh": null, "desc_fr": null, "commentaires": null, "activation": 1 }, "geometry": { "type": "Point", "coordinates": [ -4.1684859, 47.9548677 ] } },
{ "type": "Feature", "properties": { "id": 188, "km": 188, "secteur": 1, "jour": "05\/05\/2018", "heure": "14:25:18", "temps": "6:14", "commune_br": "PLOVEILH", "commune_fr": "PLOMELIN", "adresse": "34 Route de Pont l'Abbé, 29700 Plomelin, France", "latitude": 47.9469819, "longitude": -4.1719558, "desc_bzh": null, "desc_fr": null, "commentaires": null, "activation": 1 }, "geometry": { "type": "Point", "coordinates": [ -4.1719558, 47.9469819 ] } },
{ "type": "Feature", "properties": { "id": 189, "km": 189, "secteur": 1, "jour": "05\/05\/2018", "heure": "14:31:32", "temps": "6:14", "commune_br": "PLOVEILH", "commune_fr": "PLOMELIN", "adresse": "177-343 Kroaz Kermel, 29700 Plomelin, France", "latitude": 47.9391525, "longitude": -4.1720695, "desc_bzh": null, "desc_fr": null, "commentaires": null, "activation": 1 }, "geometry": { "type": "Point", "coordinates": [ -4.17206950000002, 47.939152500000013 ] } },
{ "type": "Feature", "properties": { "id": 190, "km": 190, "secteur": 1, "jour": "05\/05\/2018", "heure": "14:37:46", "temps": "6:14", "commune_br": "PLOVEILH", "commune_fr": "PLOMELIN", "adresse": "41 Hent Alexandre Masse, 29700 Plomelin, France", "latitude": 47.936795, "longitude": -4.160543, "desc_bzh": null, "desc_fr": null, "commentaires": null, "activation": 1 }, "geometry": { "type": "Point", "coordinates": [ -4.160543, 47.936795 ] } },
{ "type": "Feature", "properties": { "id": 191, "km": 191, "secteur": 1, "jour": "05\/05\/2018", "heure": "14:44:00", "temps": "6:14", "commune_br": "PLOVEILH", "commune_fr": "PLOMELIN", "adresse": "18 Rond-Point Traon ar Vorc H, 29700 Plomelin, France", "latitude": 47.9366796, "longitude": -4.1521964999999499, "desc_bzh": null, "desc_fr": null, "commentaires": null, "activation": 1 }, "geometry": { "type": "Point", "coordinates": [ -4.1521965, 47.9366796 ] } },
{ "type": "Feature", "properties": { "id": 192, "km": 192, "secteur": 1, "jour": "05\/05\/2018", "heure": "14:50:14", "temps": "6:14", "commune_br": "PLOVEILH", "commune_fr": "PLOMELIN", "adresse": "31 Hent Ti Menhir, 29700 Plomelin, France", "latitude": 47.940572, "longitude": -4.1545954000001, "desc_bzh": null, "desc_fr": null, "commentaires": null, "activation": 1 }, "geometry": { "type": "Point", "coordinates": [ -4.15459540000006, 47.940572 ] } },
{ "type": "Feature", "properties": { "id": 193, "km": 193, "secteur": 1, "jour": "05\/05\/2018", "heure": "14:56:28", "temps": "6:14", "commune_br": "PLOVEILH", "commune_fr": "PLOMELIN", "adresse": "31 Hent Kergoff, 29700 Plomelin, France", "latitude": 47.948165, "longitude": -4.155635, "desc_bzh": null, "desc_fr": null, "commentaires": null, "activation": 1 }, "geometry": { "type": "Point", "coordinates": [ -4.155635, 47.948165 ] } },
{ "type": "Feature", "properties": { "id": 194, "km": 194, "secteur": 1, "jour": "05\/05\/2018", "heure": "15:02:42", "temps": "6:14", "commune_br": "PLOVEILH", "commune_fr": "PLOMELIN", "adresse": "15 Lotissement Kerrun Uhela, 29700 Plomelin, France", "latitude": 47.9571184, "longitude": -4.1594598, "desc_bzh": null, "desc_fr": null, "commentaires": null, "activation": 1 }, "geometry": { "type": "Point", "coordinates": [ -4.15945980000004, 47.9571184 ] } },
{ "type": "Feature", "properties": { "id": 195, "km": 195, "secteur": 1, "jour": "05\/05\/2018", "heure": "15:08:56", "temps": "6:14", "commune_br": "PLOVEILH", "commune_fr": "PLOMELIN", "adresse": "55 Hent Penhoat Braz, 29700 Plomelin, France", "latitude": 47.961547, "longitude": -4.151685, "desc_bzh": null, "desc_fr": null, "commentaires": null, "activation": 1 }, "geometry": { "type": "Point", "coordinates": [ -4.151685, 47.961547 ] } },
{ "type": "Feature", "properties": { "id": 196, "km": 196, "secteur": 1, "jour": "05\/05\/2018", "heure": "15:15:10", "temps": "6:14", "commune_br": "PLOVEILH", "commune_fr": "PLOMELIN", "adresse": "78 Hent an Dour Ruz, 29700 Plomelin, France", "latitude": 47.9674797, "longitude": -4.1442767999999397, "desc_bzh": null, "desc_fr": null, "commentaires": null, "activation": 1 }, "geometry": { "type": "Point", "coordinates": [ -4.1442768, 47.9674797 ] } },
{ "type": "Feature", "properties": { "id": 197, "km": 197, "secteur": 1, "jour": "05\/05\/2018", "heure": "15:21:24", "temps": "6:14", "commune_br": "KEMPER", "commune_fr": "QUIMPER", "adresse": "479F Rue de Bel air, 29700 Pluguffan, France", "latitude": 47.9716558, "longitude": -4.1369362, "desc_bzh": null, "desc_fr": null, "commentaires": null, "activation": 1 }, "geometry": { "type": "Point", "coordinates": [ -4.13693620000004, 47.9716558 ] } },
{ "type": "Feature", "properties": { "id": 198, "km": 198, "secteur": 1, "jour": "05\/05\/2018", "heure": "15:27:38", "temps": "6:14", "commune_br": "KEMPER", "commune_fr": "QUIMPER", "adresse": "38-42 Avenue Pierre Mendès France, 29000 Quimper, France", "latitude": 47.9767337, "longitude": -4.1251554, "desc_bzh": null, "desc_fr": null, "commentaires": null, "activation": 1 }, "geometry": { "type": "Point", "coordinates": [ -4.12515540000004, 47.9767337 ] } },
{ "type": "Feature", "properties": { "id": 199, "km": 199, "secteur": 1, "jour": "05\/05\/2018", "heure": "15:33:52", "temps": "6:14", "commune_br": "KEMPER", "commune_fr": "QUIMPER", "adresse": "1B Rue du Lavoir, 29000 Quimper, France", "latitude": 47.9838857, "longitude": -4.1202218, "desc_bzh": null, "desc_fr": null, "commentaires": null, "activation": 1 }, "geometry": { "type": "Point", "coordinates": [ -4.1202218, 47.983885699999988 ] } },
{ "type": "Feature", "properties": { "id": 200, "km": 200, "secteur": 1, "jour": "05\/05\/2018", "heure": "15:40:06", "temps": "6:14", "commune_br": "KEMPER", "commune_fr": "QUIMPER", "adresse": "12 Rue Jacques Cambry, 29000 Quimper, France", "latitude": 47.9911696, "longitude": -4.116057, "desc_bzh": null, "desc_fr": null, "commentaires": null, "activation": 1 }, "geometry": { "type": "Point", "coordinates": [ -4.116057, 47.9911696 ] } },
{ "type": "Feature", "properties": { "id": 201, "km": 201, "secteur": 1, "jour": "05\/05\/2018", "heure": "15:46:20", "temps": "6:14", "commune_br": "KEMPER", "commune_fr": "QUIMPER", "adresse": "10 D765, 29000 Quimper, France", "latitude": 47.995797, "longitude": -4.10837, "desc_bzh": null, "desc_fr": null, "commentaires": null, "activation": 1 }, "geometry": { "type": "Point", "coordinates": [ -4.10837, 47.995797 ] } },
{ "type": "Feature", "properties": { "id": 202, "km": 202, "secteur": 1, "jour": "05\/05\/2018", "heure": "15:52:34", "temps": "6:14", "commune_br": "KEMPER", "commune_fr": "QUIMPER", "adresse": "1 Rue de Concarneau, 29000 Quimper, France", "latitude": 47.9938507, "longitude": -4.0915023, "desc_bzh": null, "desc_fr": null, "commentaires": null, "activation": 1 }, "geometry": { "type": "Point", "coordinates": [ -4.0915023, 47.9938507 ] } },
{ "type": "Feature", "properties": { "id": 203, "km": 203, "secteur": 1, "jour": "05\/05\/2018", "heure": "15:58:48", "temps": "6:14", "commune_br": "KEMPER", "commune_fr": "QUIMPER", "adresse": "118 Avenue de la Libération, 29000 Quimper, France", "latitude": 47.9921431, "longitude": -4.0777203, "desc_bzh": null, "desc_fr": null, "commentaires": null, "activation": 1 }, "geometry": { "type": "Point", "coordinates": [ -4.07772030000001, 47.9921431 ] } },
{ "type": "Feature", "properties": { "id": 204, "km": 204, "secteur": 1, "jour": "05\/05\/2018", "heure": "16:05:02", "temps": "6:14", "commune_br": "KEMPER", "commune_fr": "QUIMPER", "adresse": "1983 Route de Coray, 29000 Quimper, France", "latitude": 47.99459, "longitude": -4.07241, "desc_bzh": null, "desc_fr": null, "commentaires": null, "activation": 1 }, "geometry": { "type": "Point", "coordinates": [ -4.07241, 47.99459 ] } },
{ "type": "Feature", "properties": { "id": 205, "km": 205, "secteur": 1, "jour": "05\/05\/2018", "heure": "16:11:16", "temps": "6:14", "commune_br": "AN ERGE VRAS", "commune_fr": "ERGUÉ GABÉRIC", "adresse": "12-14 D15, 29500 Ergué-Gabéric, France", "latitude": 47.9962362, "longitude": -4.0619807000001, "desc_bzh": null, "desc_fr": null, "commentaires": null, "activation": 1 }, "geometry": { "type": "Point", "coordinates": [ -4.06198070000005, 47.9962362 ] } },
{ "type": "Feature", "properties": { "id": 206, "km": 206, "secteur": 1, "jour": "05\/05\/2018", "heure": "16:17:30", "temps": "6:14", "commune_br": "AN ERGE VRAS", "commune_fr": "ERGUÉ GABÉRIC", "adresse": "525 D15, 29500 Ergué-Gabéric, France", "latitude": 48.000104, "longitude": -4.050227, "desc_bzh": null, "desc_fr": null, "commentaires": null, "activation": 1 }, "geometry": { "type": "Point", "coordinates": [ -4.050227, 48.000104 ] } },
{ "type": "Feature", "properties": { "id": 207, "km": 207, "secteur": 1, "jour": "05\/05\/2018", "heure": "16:23:44", "temps": "6:14", "commune_br": "AN ERGE VRAS", "commune_fr": "ERGUÉ GABÉRIC", "adresse": "508 Route de Boden, 29500 Ergué-Gabéric, France", "latitude": 47.998615, "longitude": -4.039035, "desc_bzh": null, "desc_fr": null, "commentaires": null, "activation": 1 }, "geometry": { "type": "Point", "coordinates": [ -4.039035, 47.998615 ] } },
{ "type": "Feature", "properties": { "id": 208, "km": 208, "secteur": 1, "jour": "05\/05\/2018", "heure": "16:29:58", "temps": "6:14", "commune_br": "AN ERGE VRAS", "commune_fr": "ERGUÉ GABÉRIC", "adresse": "Chemin du Bourg, 29500 Ergué-Gabéric, France", "latitude": 47.996303, "longitude": -4.029272, "desc_bzh": null, "desc_fr": null, "commentaires": null, "activation": 1 }, "geometry": { "type": "Point", "coordinates": [ -4.029272, 47.996303 ] } },
{ "type": "Feature", "properties": { "id": 209, "km": 209, "secteur": 1, "jour": "05\/05\/2018", "heure": "16:36:12", "temps": "6:14", "commune_br": "AN ERGE VRAS", "commune_fr": "ERGUÉ GABÉRIC", "adresse": "4 Rue de Coat Chapel, 29500 Ergué-Gabéric, France", "latitude": 48.001644, "longitude": -4.023048, "desc_bzh": null, "desc_fr": null, "commentaires": null, "activation": 1 }, "geometry": { "type": "Point", "coordinates": [ -4.023048, 48.001644 ] } },
{ "type": "Feature", "properties": { "id": 222, "km": 210, "secteur": 1, "jour": "05\/05\/2018", "heure": "16:42:26", "temps": "6:14", "commune_br": "AN ERGE VRAS", "commune_fr": "ERGUÉ GABÉRIC", "adresse": "1 Rue Nicolas le Marie, 29500 Ergué-Gabéric, France", "latitude": 48.009564, "longitude": -4.020533, "desc_bzh": null, "desc_fr": null, "commentaires": null, "activation": 1 }, "geometry": { "type": "Point", "coordinates": [ -4.020533, 48.009564 ] } },
{ "type": "Feature", "properties": { "id": 223, "km": 211, "secteur": 1, "jour": "05\/05\/2018", "heure": "16:48:40", "temps": "6:14", "commune_br": "AN ERGE VRAS", "commune_fr": "ERGUÉ GABÉRIC", "adresse": "232 Avenue de Lestonan, 29500 Ergué-Gabéric, France", "latitude": 48.015104, "longitude": -4.015695, "desc_bzh": null, "desc_fr": null, "commentaires": null, "activation": 1 }, "geometry": { "type": "Point", "coordinates": [ -4.015695, 48.015104 ] } },
{ "type": "Feature", "properties": { "id": 224, "km": 212, "secteur": 1, "jour": "05\/05\/2018", "heure": "16:54:54", "temps": "6:14", "commune_br": "AN ERGE VRAS", "commune_fr": "ERGUÉ GABÉRIC", "adresse": "3-5 Rue Nicolas le Marie, 29500 Ergué-Gabéric, France", "latitude": 48.009757, "longitude": -4.020276, "desc_bzh": null, "desc_fr": null, "commentaires": null, "activation": 1 }, "geometry": { "type": "Point", "coordinates": [ -4.020276, 48.009757 ] } },
{ "type": "Feature", "properties": { "id": 225, "km": 213, "secteur": 1, "jour": "05\/05\/2018", "heure": "17:01:08", "temps": "6:14", "commune_br": "AN ERGE VRAS", "commune_fr": "ERGUÉ GABÉRIC", "adresse": "Chemin de Quillihuec, 29500 Ergué-Gabéric, France", "latitude": 48.008242, "longitude": -4.023634, "desc_bzh": null, "desc_fr": null, "commentaires": null, "activation": 1 }, "geometry": { "type": "Point", "coordinates": [ -4.023634, 48.008242 ] } },
{ "type": "Feature", "properties": { "id": 210, "km": 214, "secteur": 1, "jour": "05\/05\/2018", "heure": "17:07:22", "temps": "6:14", "commune_br": "AN ERGE VRAS", "commune_fr": "ERGUÉ GABÉRIC", "adresse": "Route de Plas an Dans, 29500 Ergué-Gabéric, France", "latitude": 48.002853, "longitude": -4.018982, "desc_bzh": null, "desc_fr": null, "commentaires": null, "activation": 1 }, "geometry": { "type": "Point", "coordinates": [ -4.018982, 48.002853 ] } },
{ "type": "Feature", "properties": { "id": 211, "km": 215, "secteur": 1, "jour": "05\/05\/2018", "heure": "17:13:36", "temps": "6:14", "commune_br": "AN ERGE VRAS", "commune_fr": "ERGUÉ GABÉRIC", "adresse": "1 Route de Plas an Dans, 29500 Ergué-Gabéric, France", "latitude": 48.002469, "longitude": -4.005458, "desc_bzh": null, "desc_fr": null, "commentaires": null, "activation": 1 }, "geometry": { "type": "Point", "coordinates": [ -4.005458, 48.002469 ] } },
{ "type": "Feature", "properties": { "id": 212, "km": 216, "secteur": 1, "jour": "05\/05\/2018", "heure": "17:19:50", "temps": "6:14", "commune_br": "AN ERGE VRAS", "commune_fr": "ERGUÉ GABÉRIC", "adresse": "1253 Route du Reunic, 29500 Ergué-Gabéric, France", "latitude": 48.000258, "longitude": -3.991511, "desc_bzh": null, "desc_fr": null, "commentaires": null, "activation": 1 }, "geometry": { "type": "Point", "coordinates": [ -3.991511, 48.000258 ] } },
{ "type": "Feature", "properties": { "id": 213, "km": 217, "secteur": 1, "jour": "05\/05\/2018", "heure": "17:26:04", "temps": "6:14", "commune_br": "AN ERGE VRAS", "commune_fr": "ERGUÉ GABÉRIC", "adresse": "Route de Kerdevot, 29500 Ergué-Gabéric, France", "latitude": 48.005807, "longitude": -3.981705, "desc_bzh": null, "desc_fr": null, "commentaires": null, "activation": 1 }, "geometry": { "type": "Point", "coordinates": [ -3.981705, 48.005807 ] } },
{ "type": "Feature", "properties": { "id": 214, "km": 218, "secteur": 1, "jour": "05\/05\/2018", "heure": "17:32:18", "temps": "6:14", "commune_br": "AN ERGE VRAS", "commune_fr": "ERGUÉ GABÉRIC", "adresse": "Chemin de la Mine, 29500 Ergué-Gabéric, France", "latitude": 48.006475, "longitude": -3.969707, "desc_bzh": null, "desc_fr": null, "commentaires": null, "activation": 1 }, "geometry": { "type": "Point", "coordinates": [ -3.969707, 48.006475 ] } },
{ "type": "Feature", "properties": { "id": 215, "km": 219, "secteur": 1, "jour": "05\/05\/2018", "heure": "17:38:32", "temps": "6:14", "commune_br": "AN ERGE VRAS", "commune_fr": "ERGUÉ GABÉRIC", "adresse": "Chemin de Ménez Niverrot, 29500 Ergué-Gabéric, France", "latitude": 47.999354, "longitude": -3.965576, "desc_bzh": null, "desc_fr": null, "commentaires": null, "activation": 1 }, "geometry": { "type": "Point", "coordinates": [ -3.965576, 47.999354 ] } },
{ "type": "Feature", "properties": { "id": 216, "km": 220, "secteur": 1, "jour": "05\/05\/2018", "heure": "17:44:46", "temps": "6:14", "commune_br": "ELIANT", "commune_fr": "ELLIANT", "adresse": "662 Veïl Goz, 29370 Elliant, France", "latitude": 47.999257, "longitude": -3.954197, "desc_bzh": null, "desc_fr": null, "commentaires": null, "activation": 1 }, "geometry": { "type": "Point", "coordinates": [ -3.954197, 47.999257 ] } },
{ "type": "Feature", "properties": { "id": 217, "km": 221, "secteur": 1, "jour": "05\/05\/2018", "heure": "17:51:00", "temps": "6:14", "commune_br": "ELIANT", "commune_fr": "ELLIANT", "adresse": "665 Kerlinic, 29370 Elliant, France", "latitude": 48.001667, "longitude": -3.940846, "desc_bzh": null, "desc_fr": null, "commentaires": null, "activation": 1 }, "geometry": { "type": "Point", "coordinates": [ -3.940846, 48.001667 ] } },
{ "type": "Feature", "properties": { "id": 218, "km": 222, "secteur": 1, "jour": "05\/05\/2018", "heure": "17:57:14", "temps": "6:14", "commune_br": "ELIANT", "commune_fr": "ELLIANT", "adresse": "687 Quistinigou, 29370 Elliant, France", "latitude": 48.004209, "longitude": -3.926574, "desc_bzh": null, "desc_fr": null, "commentaires": null, "activation": 1 }, "geometry": { "type": "Point", "coordinates": [ -3.926574, 48.004209 ] } },
{ "type": "Feature", "properties": { "id": 219, "km": 223, "secteur": 1, "jour": "05\/05\/2018", "heure": "18:03:28", "temps": "6:14", "commune_br": "ELIANT", "commune_fr": "ELLIANT", "adresse": "739 Ménez Meur, 29370 Elliant, France", "latitude": 48.0020794, "longitude": -3.918261, "desc_bzh": null, "desc_fr": null, "commentaires": null, "activation": 1 }, "geometry": { "type": "Point", "coordinates": [ -3.918261, 48.0020794 ] } },
{ "type": "Feature", "properties": { "id": 220, "km": 224, "secteur": 1, "jour": "05\/05\/2018", "heure": "18:09:42", "temps": "6:14", "commune_br": "ELIANT", "commune_fr": "ELLIANT", "adresse": "730-734 Stang Louarn, 29370 Elliant, France", "latitude": 48.000382, "longitude": -3.903896, "desc_bzh": null, "desc_fr": null, "commentaires": null, "activation": 1 }, "geometry": { "type": "Point", "coordinates": [ -3.903896, 48.000382 ] } },